{"1":[{"origin":"ABQ","cancels":"2","total":"67","city":"Albuquerque","state":"NM","lat":35.04022222,"long":-106.6091944},{"origin":"ALB","cancels":"0","total":"16","city":"Albany","state":"NY","lat":42.74811944,"long":-73.80297861},{"origin":"AMA","cancels":"0","total":"19","city":"Amarillo","state":"TX","lat":35.2193725,"long":-101.7059272},{"origin":"ANC","cancels":"0","total":"37","city":"Anchorage","state":"AK","lat":61.17432028,"long":-149.9961856},{"origin":"ASE","cancels":"2","total":"27","city":"Aspen","state":"CO","lat":39.22316,"long":-106.868845},{"origin":"ATL","cancels":"2","total":"725","city":"Atlanta","state":"GA","lat":33.64044444,"long":-84.42694444},{"origin":"AUS","cancels":"2","total":"104","city":"Austin","state":"TX","lat":30.19453278,"long":-97.66987194},{"origin":"BDL","cancels":"1","total":"52","city":"Windsor Locks","state":"CT","lat":41.93887417,"long":-72.68322833},{"origin":"BHM","cancels":"1","total":"28","city":"Birmingham","state":"AL","lat":33.56294306,"long":-86.75354972},{"origin":"BNA","cancels":"10","total":"130","city":"Nashville","state":"TN","lat":36.12447667,"long":-86.67818222},{"origin":"BOI","cancels":"0","total":"26","city":"Boise","state":"ID","lat":43.56444444,"long":-116.2227778},{"origin":"BOS","cancels":"1","total":"242","city":"Boston","state":"MA","lat":42.3643475,"long":-71.00517917},{"origin":"BTR","cancels":"1","total":"17","city":"Baton Rouge","state":"LA","lat":30.53316083,"long":-91.14963444},{"origin":"BUF","cancels":"4","total":"41","city":"Buffalo","state":"NY","lat":42.94052472,"long":-78.73216667},{"origin":"BUR","cancels":"0","total":"46","city":"Burbank","state":"CA","lat":34.20061917,"long":-118.3584969},{"origin":"BWI","cancels":"1","total":"211","city":"Baltimore","state":"MD","lat":39.17540167,"long":-76.66819833},{"origin":"CHS","cancels":"2","total":"31","city":"Charleston","state":"SC","lat":32.89864639,"long":-80.04050583},{"origin":"CLE","cancels":"23","total":"96","city":"Cleveland","state":"OH","lat":41.41089417,"long":-81.84939667},{"origin":"CLT","cancels":"4","total":"288","city":"Charlotte","state":"NC","lat":35.21401111,"long":-80.94312583},{"origin":"CMH","cancels":"6","total":"63","city":"Columbus","state":"OH","lat":39.99798528,"long":-82.89188278},{"origin":"COS","cancels":"0","total":"25","city":"Colorado Springs","state":"CO","lat":38.80580556,"long":-104.70025},{"origin":"CRP","cancels":"2","total":"17","city":"Corpus Christi","state":"TX","lat":27.77036083,"long":-97.50121528},{"origin":"CVG","cancels":"1","total":"35","city":"Covington","state":"KY","lat":39.04614278,"long":-84.6621725},{"origin":"DAL","cancels":"1","total":"91","city":"Dallas","state":"TX","lat":32.84711389,"long":-96.85177222},{"origin":"DAY","cancels":"2","total":"22","city":"Dayton","state":"OH","lat":39.90237583,"long":-84.219375},{"origin":"DCA","cancels":"9","total":"139","city":"Arlington","state":"VA","lat":38.85208333,"long":-77.03772222},{"origin":"DEN","cancels":"13","total":"626","city":"Denver","state":"CO","lat":39.85840806,"long":-104.6670019},{"origin":"DFW","cancels":"25","total":"754","city":"Dallas-Fort Worth","state":"TX","lat":32.89595056,"long":-97.0372},{"origin":"DSM","cancels":"8","total":"25","city":"Des Moines","state":"IA","lat":41.53493306,"long":-93.66068222},{"origin":"DTW","cancels":"9","total":"181","city":"Detroit","state":"MI","lat":42.21205889,"long":-83.34883583},{"origin":"ELP","cancels":"1","total":"47","city":"El Paso","state":"TX","lat":31.80666667,"long":-106.3778056},{"origin":"EWR","cancels":"12","total":"284","city":"Newark","state":"NJ","lat":40.69249722,"long":-74.16866056},{"origin":"FAT","cancels":"0","total":"30","city":"Fresno","state":"CA","lat":36.77619444,"long":-119.7181389},{"origin":"FLL","cancels":"1","total":"195","city":"Ft. Lauderdale","state":"FL","lat":26.07258333,"long":-80.15275},{"origin":"FSD","cancels":"3","total":"15","city":"Sioux Falls","state":"SD","lat":43.58135111,"long":-96.74170028},{"origin":"GEG","cancels":"0","total":"21","city":"Spokane","state":"WA","lat":47.61985556,"long":-117.5338425},{"origin":"GRR","cancels":"1","total":"20","city":"Grand Rapids","state":"MI","lat":42.88081972,"long":-85.52276778},{"origin":"GSP","cancels":"0","total":"18","city":"Greer","state":"SC","lat":34.89566722,"long":-82.21885833},{"origin":"HNL","cancels":"1","total":"132","city":"Honolulu","state":"HI","lat":21.31869111,"long":-157.9224072},{"origin":"HOU","cancels":"5","total":"141","city":"Houston","state":"TX","lat":29.64541861,"long":-95.27888889},{"origin":"HPN","cancels":"0","total":"17","city":"White Plains","state":"NY","lat":41.06695778,"long":-73.70757444},{"origin":"IAD","cancels":"5","total":"153","city":"Chantilly","state":"VA","lat":38.94453194,"long":-77.45580972},{"origin":"IAH","cancels":"29","total":"488","city":"Houston","state":"TX","lat":29.98047222,"long":-95.33972222},{"origin":"ICT","cancels":"4","total":"27","city":"Wichita","state":"KS","lat":37.64995889,"long":-97.43304583},{"origin":"IND","cancels":"3","total":"61","city":"Indianapolis","state":"IN","lat":39.71732917,"long":-86.29438417},{"origin":"ITO","cancels":"0","total":"17","city":"Hilo","state":"HI","lat":19.72026306,"long":-155.0484703},{"origin":"JAN","cancels":"3","total":"21","city":"Jackson","state":"MS","lat":32.31116667,"long":-90.07588889},{"origin":"JAX","cancels":"0","total":"55","city":"Jacksonville","state":"FL","lat":30.49405556,"long":-81.68786111},{"origin":"JFK","cancels":"2","total":"258","city":"New York","state":"NY","lat":40.63975111,"long":-73.77892556},{"origin":"KOA","cancels":"0","total":"30","city":"Kailua/Kona","state":"HI","lat":19.73876583,"long":-156.0456314},{"origin":"LAS","cancels":"4","total":"330","city":"Las Vegas","state":"NV","lat":36.08036111,"long":-115.1523333},{"origin":"LAX","cancels":"8","total":"603","city":"Los Angeles","state":"CA","lat":33.94253611,"long":-118.4080744},{"origin":"LGA","cancels":"6","total":"222","city":"New York","state":"NY","lat":40.77724306,"long":-73.87260917},{"origin":"LGB","cancels":"0","total":"30","city":"Long Beach","state":"CA","lat":33.81772222,"long":-118.1516111},{"origin":"LIH","cancels":"0","total":"27","city":"Lihue","state":"HI","lat":21.97598306,"long":-159.3389581},{"origin":"LIT","cancels":"4","total":"34","city":"Little Rock","state":"AR","lat":34.72939611,"long":-92.22424556},{"origin":"MAF","cancels":"0","total":"20","city":"Midland","state":"TX","lat":31.94252778,"long":-102.2019139},{"origin":"MCI","cancels":"6","total":"104","city":"Kansas City","state":"MO","lat":39.29760528,"long":-94.71390556},{"origin":"MCO","cancels":"2","total":"306","city":"Orlando","state":"FL","lat":28.42888889,"long":-81.31602778},{"origin":"MDW","cancels":"8","total":"201","city":"Chicago","state":"IL","lat":41.7859825,"long":-87.75242444},{"origin":"MEM","cancels":"4","total":"33","city":"Memphis","state":"TN","lat":35.04241667,"long":-89.97666667},{"origin":"MHT","cancels":"2","total":"16","city":"Manchester","state":"NH","lat":42.93451639,"long":-71.43705583},{"origin":"MIA","cancels":"3","total":"230","city":"Miami","state":"FL","lat":25.79325,"long":-80.29055556},{"origin":"MKE","cancels":"8","total":"77","city":"Milwaukee","state":"WI","lat":42.94722222,"long":-87.89658333},{"origin":"MSN","cancels":"2","total":"16","city":"Madison","state":"WI","lat":43.13985778,"long":-89.33751361},{"origin":"MSP","cancels":"2","total":"208","city":"Minneapolis","state":"MN","lat":44.88054694,"long":-93.2169225},{"origin":"MSY","cancels":"2","total":"89","city":"New Orleans","state":"LA","lat":29.99338889,"long":-90.25802778},{"origin":"OAK","cancels":"0","total":"94","city":"Oakland","state":"CA","lat":37.72129083,"long":-122.2207167},{"origin":"OGG","cancels":"0","total":"60","city":"Kahului","state":"HI","lat":20.89864972,"long":-156.4304578},{"origin":"OKC","cancels":"2","total":"51","city":"Oklahoma City","state":"OK","lat":35.39308833,"long":-97.60073389},{"origin":"OMA","cancels":"7","total":"49","city":"Omaha","state":"NE","lat":41.30251861,"long":-95.89417306},{"origin":"ONT","cancels":"0","total":"48","city":"Ontario","state":"CA","lat":34.056,"long":-117.6011944},{"origin":"ORD","cancels":"211","total":"668","city":"Chicago","state":"IL","lat":41.979595,"long":-87.90446417},{"origin":"ORF","cancels":"1","total":"32","city":"Norfolk","state":"VA","lat":36.89461111,"long":-76.20122222},{"origin":"PBI","cancels":"2","total":"80","city":"West Palm Beach","state":"FL","lat":26.68316194,"long":-80.09559417},{"origin":"PDX","cancels":"5","total":"149","city":"Portland","state":"OR","lat":45.58872222,"long":-122.5975},{"origin":"PHL","cancels":"0","total":"177","city":"Philadelphia","state":"PA","lat":39.87195278,"long":-75.24114083},{"origin":"PHX","cancels":"1","total":"430","city":"Phoenix","state":"AZ","lat":33.43416667,"long":-112.0080556},{"origin":"PIT","cancels":"5","total":"69","city":"Pittsburgh","state":"PA","lat":40.49146583,"long":-80.23287083},{"origin":"PNS","cancels":"0","total":"21","city":"Pensacola","state":"FL","lat":30.47330556,"long":-87.18744444},{"origin":"PSP","cancels":"2","total":"36","city":"Palm Springs","state":"CA","lat":33.82921556,"long":-116.5062531},{"origin":"PVD","cancels":"1","total":"30","city":"Providence","state":"RI","lat":41.72399917,"long":-71.42822111},{"origin":"RDU","cancels":"2","total":"89","city":"Raleigh","state":"NC","lat":35.87763889,"long":-78.78747222},{"origin":"RIC","cancels":"2","total":"34","city":"Richmond","state":"VA","lat":37.50516667,"long":-77.31966667},{"origin":"RNO","cancels":"0","total":"38","city":"Reno","state":"NV","lat":39.49857611,"long":-119.7680647},{"origin":"ROC","cancels":"3","total":"20","city":"Rochester","state":"NY","lat":43.11886611,"long":-77.67238389},{"origin":"RSW","cancels":"2","total":"90","city":"Ft. Myers","state":"FL","lat":26.53616667,"long":-81.75516667},{"origin":"SAN","cancels":"3","total":"185","city":"San Diego","state":"CA","lat":32.73355611,"long":-117.1896567},{"origin":"SAT","cancels":"1","total":"88","city":"San Antonio","state":"TX","lat":29.53369444,"long":-98.46977778},{"origin":"SAV","cancels":"1","total":"16","city":"Savannah","state":"GA","lat":32.12758333,"long":-81.20213889},{"origin":"SBA","cancels":"0","total":"25","city":"Santa Barbara","state":"CA","lat":34.42621194,"long":-119.8403733},{"origin":"SDF","cancels":"1","total":"33","city":"Louisville","state":"KY","lat":38.17438889,"long":-85.736},{"origin":"SEA","cancels":"6","total":"270","city":"Seattle","state":"WA","lat":47.44898194,"long":-122.3093131},{"origin":"SFO","cancels":"7","total":"448","city":"San Francisco","state":"CA","lat":37.61900194,"long":-122.3748433},{"origin":"SGF","cancels":"2","total":"15","city":"Springfield","state":"MO","lat":37.24432611,"long":-93.38685806},{"origin":"SHV","cancels":"0","total":"16","city":"Shreveport","state":"LA","lat":32.4466275,"long":-93.82559833},{"origin":"SJC","cancels":"1","total":"97","city":"San Jose","state":"CA","lat":37.36186194,"long":-121.9290089},{"origin":"SJU","cancels":"1","total":"90","city":"San Juan","state":"PR","lat":18.43941667,"long":-66.00183333},{"origin":"SLC","cancels":"5","total":"244","city":"Salt Lake City","state":"UT","lat":40.78838778,"long":-111.9777731},{"origin":"SMF","cancels":"1","total":"95","city":"Sacramento","state":"CA","lat":38.69542167,"long":-121.5907669},{"origin":"SNA","cancels":"1","total":"89","city":"Santa Ana","state":"CA","lat":33.67565861,"long":-117.8682225},{"origin":"STL","cancels":"6","total":"118","city":"St Louis","state":"MO","lat":38.74768694,"long":-90.35998972},{"origin":"SYR","cancels":"3","total":"20","city":"Syracuse","state":"NY","lat":43.11118694,"long":-76.10631056},{"origin":"TPA","cancels":"0","total":"179","city":"Tampa","state":"FL","lat":27.97547222,"long":-82.53325},{"origin":"TUL","cancels":"4","total":"45","city":"Tulsa","state":"OK","lat":36.19837222,"long":-95.88824167},{"origin":"TUS","cancels":"1","total":"44","city":"Tucson","state":"AZ","lat":32.11608333,"long":-110.9410278},{"origin":"TYS","cancels":"4","total":"18","city":"Knoxville","state":"TN","lat":35.81248722,"long":-83.99285583},{"origin":"XNA","cancels":"9","total":"24","city":"Fayetteville/Springdale/Rogers","state":"AR","lat":36.28186944,"long":-94.30681111}],"2":[{"origin":"ABQ","cancels":"3","total":"77","city":"Albuquerque","state":"NM","lat":35.04022222,"long":-106.6091944},{"origin":"ALB","cancels":"5","total":"24","city":"Albany","state":"NY","lat":42.74811944,"long":-73.80297861},{"origin":"AMA","cancels":"1","total":"20","city":"Amarillo","state":"TX","lat":35.2193725,"long":-101.7059272},{"origin":"ANC","cancels":"0","total":"49","city":"Anchorage","state":"AK","lat":61.17432028,"long":-149.9961856},{"origin":"ASE","cancels":"1","total":"27","city":"Aspen","state":"CO","lat":39.22316,"long":-106.868845},{"origin":"ATL","cancels":"42","total":"1050","city":"Atlanta","state":"GA","lat":33.64044444,"long":-84.42694444},{"origin":"AUS","cancels":"2","total":"123","city":"Austin","state":"TX","lat":30.19453278,"long":-97.66987194},{"origin":"BDL","cancels":"9","total":"60","city":"Windsor Locks","state":"CT","lat":41.93887417,"long":-72.68322833},{"origin":"BHM","cancels":"3","total":"36","city":"Birmingham","state":"AL","lat":33.56294306,"long":-86.75354972},{"origin":"BNA","cancels":"34","total":"160","city":"Nashville","state":"TN","lat":36.12447667,"long":-86.67818222},{"origin":"BOI","cancels":"1","total":"34","city":"Boise","state":"ID","lat":43.56444444,"long":-116.2227778},{"origin":"BOS","cancels":"53","total":"274","city":"Boston","state":"MA","lat":42.3643475,"long":-71.00517917},{"origin":"BTR","cancels":"1","total":"23","city":"Baton Rouge","state":"LA","lat":30.53316083,"long":-91.14963444},{"origin":"BUF","cancels":"12","total":"56","city":"Buffalo","state":"NY","lat":42.94052472,"long":-78.73216667},{"origin":"BUR","cancels":"2","total":"61","city":"Burbank","state":"CA","lat":34.20061917,"long":-118.3584969},{"origin":"BWI","cancels":"31","total":"256","city":"Baltimore","state":"MD","lat":39.17540167,"long":-76.66819833},{"origin":"BZN","cancels":"0","total":"15","city":"Bozeman","state":"MT","lat":45.77690139,"long":-111.1530072},{"origin":"CAE","cancels":"3","total":"19","city":"Columbia","state":"SC","lat":33.93884,"long":-81.11953944},{"origin":"CAK","cancels":"1","total":"16","city":"Akron","state":"OH","lat":40.91631194,"long":-81.44246556},{"origin":"CHS","cancels":"12","total":"40","city":"Charleston","state":"SC","lat":32.89864639,"long":-80.04050583},{"origin":"CLE","cancels":"39","total":"122","city":"Cleveland","state":"OH","lat":41.41089417,"long":-81.84939667},{"origin":"CLT","cancels":"36","total":"333","city":"Charlotte","state":"NC","lat":35.21401111,"long":-80.94312583},{"origin":"CMH","cancels":"11","total":"73","city":"Columbus","state":"OH","lat":39.99798528,"long":-82.89188278},{"origin":"COS","cancels":"3","total":"29","city":"Colorado Springs","state":"CO","lat":38.80580556,"long":-104.70025},{"origin":"CRP","cancels":"1","total":"19","city":"Corpus Christi","state":"TX","lat":27.77036083,"long":-97.50121528},{"origin":"CVG","cancels":"13","total":"67","city":"Covington","state":"KY","lat":39.04614278,"long":-84.6621725},{"origin":"DAL","cancels":"6","total":"136","city":"Dallas","state":"TX","lat":32.84711389,"long":-96.85177222},{"origin":"DAY","cancels":"6","total":"24","city":"Dayton","state":"OH","lat":39.90237583,"long":-84.219375},{"origin":"DCA","cancels":"21","total":"174","city":"Arlington","state":"VA","lat":38.85208333,"long":-77.03772222},{"origin":"DEN","cancels":"50","total":"686","city":"Denver","state":"CO","lat":39.85840806,"long":-104.6670019},{"origin":"DFW","cancels":"40","total":"798","city":"Dallas-Fort Worth","state":"TX","lat":32.89595056,"long":-97.0372},{"origin":"DSM","cancels":"4","total":"27","city":"Des Moines","state":"IA","lat":41.53493306,"long":-93.66068222},{"origin":"DTW","cancels":"28","total":"254","city":"Detroit","state":"MI","lat":42.21205889,"long":-83.34883583},{"origin":"ELP","cancels":"2","total":"54","city":"El Paso","state":"TX","lat":31.80666667,"long":-106.3778056},{"origin":"EUG","cancels":"2","total":"17","city":"Eugene","state":"OR","lat":44.12326,"long":-123.2186856},{"origin":"EWR","cancels":"117","total":"343","city":"Newark","state":"NJ","lat":40.69249722,"long":-74.16866056},{"origin":"EYW","cancels":"0","total":"15","city":"Key West","state":"FL","lat":24.55611111,"long":-81.75955556},{"origin":"FAR","cancels":"4","total":"19","city":"Fargo","state":"ND","lat":46.91934889,"long":-96.81498889},{"origin":"FAT","cancels":"0","total":"34","city":"Fresno","state":"CA","lat":36.77619444,"long":-119.7181389},{"origin":"FLL","cancels":"28","total":"215","city":"Ft. Lauderdale","state":"FL","lat":26.07258333,"long":-80.15275},{"origin":"FSD","cancels":"3","total":"18","city":"Sioux Falls","state":"SD","lat":43.58135111,"long":-96.74170028},{"origin":"GEG","cancels":"2","total":"25","city":"Spokane","state":"WA","lat":47.61985556,"long":-117.5338425},{"origin":"GRR","cancels":"5","total":"26","city":"Grand Rapids","state":"MI","lat":42.88081972,"long":-85.52276778},{"origin":"GSO","cancels":"4","total":"20","city":"Greensboro","state":"NC","lat":36.09774694,"long":-79.9372975},{"origin":"GSP","cancels":"2","total":"23","city":"Greer","state":"SC","lat":34.89566722,"long":-82.21885833},{"origin":"HNL","cancels":"0","total":"133","city":"Honolulu","state":"HI","lat":21.31869111,"long":-157.9224072},{"origin":"HOU","cancels":"23","total":"180","city":"Houston","state":"TX","lat":29.64541861,"long":-95.27888889},{"origin":"HPN","cancels":"7","total":"19","city":"White Plains","state":"NY","lat":41.06695778,"long":-73.70757444},{"origin":"HSV","cancels":"1","total":"18","city":"Huntsville","state":"AL","lat":34.6404475,"long":-86.77310944},{"origin":"IAD","cancels":"38","total":"171","city":"Chantilly","state":"VA","lat":38.94453194,"long":-77.45580972},{"origin":"IAH","cancels":"35","total":"526","city":"Houston","state":"TX","lat":29.98047222,"long":-95.33972222},{"origin":"ICT","cancels":"6","total":"30","city":"Wichita","state":"KS","lat":37.64995889,"long":-97.43304583},{"origin":"IND","cancels":"9","total":"77","city":"Indianapolis","state":"IN","lat":39.71732917,"long":-86.29438417},{"origin":"ITO","cancels":"0","total":"18","city":"Hilo","state":"HI","lat":19.72026306,"long":-155.0484703},{"origin":"JAN","cancels":"2","total":"25","city":"Jackson","state":"MS","lat":32.31116667,"long":-90.07588889},{"origin":"JAX","cancels":"11","total":"70","city":"Jacksonville","state":"FL","lat":30.49405556,"long":-81.68786111},{"origin":"JFK","cancels":"48","total":"283","city":"New York","state":"NY","lat":40.63975111,"long":-73.77892556},{"origin":"KOA","cancels":"0","total":"29","city":"Kailua/Kona","state":"HI","lat":19.73876583,"long":-156.0456314},{"origin":"LAS","cancels":"25","total":"375","city":"Las Vegas","state":"NV","lat":36.08036111,"long":-115.1523333},{"origin":"LAX","cancels":"36","total":"673","city":"Los Angeles","state":"CA","lat":33.94253611,"long":-118.4080744},{"origin":"LBB","cancels":"1","total":"20","city":"Lubbock","state":"TX","lat":33.66363889,"long":-101.8227778},{"origin":"LFT","cancels":"0","total":"17","city":"Lafayette","state":"LA","lat":30.20527972,"long":-91.987655},{"origin":"LGA","cancels":"50","total":"289","city":"New York","state":"NY","lat":40.77724306,"long":-73.87260917},{"origin":"LGB","cancels":"1","total":"33","city":"Long Beach","state":"CA","lat":33.81772222,"long":-118.1516111},{"origin":"LIH","cancels":"0","total":"30","city":"Lihue","state":"HI","lat":21.97598306,"long":-159.3389581},{"origin":"LIT","cancels":"5","total":"37","city":"Little Rock","state":"AR","lat":34.72939611,"long":-92.22424556},{"origin":"MAF","cancels":"1","total":"27","city":"Midland","state":"TX","lat":31.94252778,"long":-102.2019139},{"origin":"MCI","cancels":"19","total":"131","city":"Kansas City","state":"MO","lat":39.29760528,"long":-94.71390556},{"origin":"MCO","cancels":"43","total":"329","city":"Orlando","state":"FL","lat":28.42888889,"long":-81.31602778},{"origin":"MDW","cancels":"108","total":"234","city":"Chicago","state":"IL","lat":41.7859825,"long":-87.75242444},{"origin":"MEM","cancels":"7","total":"46","city":"Memphis","state":"TN","lat":35.04241667,"long":-89.97666667},{"origin":"MHT","cancels":"5","total":"21","city":"Manchester","state":"NH","lat":42.93451639,"long":-71.43705583},{"origin":"MIA","cancels":"19","total":"248","city":"Miami","state":"FL","lat":25.79325,"long":-80.29055556},{"origin":"MKE","cancels":"19","total":"92","city":"Milwaukee","state":"WI","lat":42.94722222,"long":-87.89658333},{"origin":"MOB","cancels":"0","total":"16","city":"Mobile","state":"AL","lat":30.69141667,"long":-88.24283333},{"origin":"MSN","cancels":"7","total":"22","city":"Madison","state":"WI","lat":43.13985778,"long":-89.33751361},{"origin":"MSP","cancels":"17","total":"290","city":"Minneapolis","state":"MN","lat":44.88054694,"long":-93.2169225},{"origin":"MSY","cancels":"8","total":"110","city":"New Orleans","state":"LA","lat":29.99338889,"long":-90.25802778},{"origin":"OAK","cancels":"3","total":"122","city":"Oakland","state":"CA","lat":37.72129083,"long":-122.2207167},{"origin":"OGG","cancels":"0","total":"60","city":"Kahului","state":"HI","lat":20.89864972,"long":-156.4304578},{"origin":"OKC","cancels":"4","total":"61","city":"Oklahoma City","state":"OK","lat":35.39308833,"long":-97.60073389},{"origin":"OMA","cancels":"12","total":"54","city":"Omaha","state":"NE","lat":41.30251861,"long":-95.89417306},{"origin":"ONT","cancels":"3","total":"61","city":"Ontario","state":"CA","lat":34.056,"long":-117.6011944},{"origin":"ORD","cancels":"273","total":"733","city":"Chicago","state":"IL","lat":41.979595,"long":-87.90446417},{"origin":"ORF","cancels":"7","total":"35","city":"Norfolk","state":"VA","lat":36.89461111,"long":-76.20122222},{"origin":"PBI","cancels":"18","total":"88","city":"West Palm Beach","state":"FL","lat":26.68316194,"long":-80.09559417},{"origin":"PDX","cancels":"2","total":"165","city":"Portland","state":"OR","lat":45.58872222,"long":-122.5975},{"origin":"PHL","cancels":"26","total":"208","city":"Philadelphia","state":"PA","lat":39.87195278,"long":-75.24114083},{"origin":"PHX","cancels":"24","total":"489","city":"Phoenix","state":"AZ","lat":33.43416667,"long":-112.0080556},{"origin":"PIT","cancels":"16","total":"77","city":"Pittsburgh","state":"PA","lat":40.49146583,"long":-80.23287083},{"origin":"PNS","cancels":"2","total":"24","city":"Pensacola","state":"FL","lat":30.47330556,"long":-87.18744444},{"origin":"PSP","cancels":"1","total":"40","city":"Palm Springs","state":"CA","lat":33.82921556,"long":-116.5062531},{"origin":"PVD","cancels":"9","total":"33","city":"Providence","state":"RI","lat":41.72399917,"long":-71.42822111},{"origin":"RDU","cancels":"23","total":"120","city":"Raleigh","state":"NC","lat":35.87763889,"long":-78.78747222},{"origin":"RIC","cancels":"10","total":"44","city":"Richmond","state":"VA","lat":37.50516667,"long":-77.31966667},{"origin":"RNO","cancels":"1","total":"46","city":"Reno","state":"NV","lat":39.49857611,"long":-119.7680647},{"origin":"ROC","cancels":"11","total":"25","city":"Rochester","state":"NY","lat":43.11886611,"long":-77.67238389},{"origin":"RSW","cancels":"22","total":"100","city":"Ft. Myers","state":"FL","lat":26.53616667,"long":-81.75516667},{"origin":"SAN","cancels":"18","total":"225","city":"San Diego","state":"CA","lat":32.73355611,"long":-117.1896567},{"origin":"SAT","cancels":"4","total":"102","city":"San Antonio","state":"TX","lat":29.53369444,"long":-98.46977778},{"origin":"SAV","cancels":"5","total":"22","city":"Savannah","state":"GA","lat":32.12758333,"long":-81.20213889},{"origin":"SBA","cancels":"0","total":"27","city":"Santa Barbara","state":"CA","lat":34.42621194,"long":-119.8403733},{"origin":"SDF","cancels":"8","total":"39","city":"Louisville","state":"KY","lat":38.17438889,"long":-85.736},{"origin":"SEA","cancels":"8","total":"292","city":"Seattle","state":"WA","lat":47.44898194,"long":-122.3093131},{"origin":"SFO","cancels":"37","total":"491","city":"San Francisco","state":"CA","lat":37.61900194,"long":-122.3748433},{"origin":"SGF","cancels":"2","total":"18","city":"Springfield","state":"MO","lat":37.24432611,"long":-93.38685806},{"origin":"SHV","cancels":"0","total":"21","city":"Shreveport","state":"LA","lat":32.4466275,"long":-93.82559833},{"origin":"SJC","cancels":"6","total":"119","city":"San Jose","state":"CA","lat":37.36186194,"long":-121.9290089},{"origin":"SJU","cancels":"11","total":"92","city":"San Juan","state":"PR","lat":18.43941667,"long":-66.00183333},{"origin":"SLC","cancels":"2","total":"327","city":"Salt Lake City","state":"UT","lat":40.78838778,"long":-111.9777731},{"origin":"SMF","cancels":"7","total":"121","city":"Sacramento","state":"CA","lat":38.69542167,"long":-121.5907669},{"origin":"SNA","cancels":"4","total":"113","city":"Santa Ana","state":"CA","lat":33.67565861,"long":-117.8682225},{"origin":"STL","cancels":"21","total":"152","city":"St Louis","state":"MO","lat":38.74768694,"long":-90.35998972},{"origin":"STT","cancels":"2","total":"15","city":"Charlotte Amalie","state":"VI","lat":18.33730556,"long":-64.97336111},{"origin":"SYR","cancels":"7","total":"21","city":"Syracuse","state":"NY","lat":43.11118694,"long":-76.10631056},{"origin":"TPA","cancels":"21","total":"194","city":"Tampa","state":"FL","lat":27.97547222,"long":-82.53325},{"origin":"TUL","cancels":"4","total":"53","city":"Tulsa","state":"OK","lat":36.19837222,"long":-95.88824167},{"origin":"TUS","cancels":"1","total":"49","city":"Tucson","state":"AZ","lat":32.11608333,"long":-110.9410278},{"origin":"TYS","cancels":"4","total":"24","city":"Knoxville","state":"TN","lat":35.81248722,"long":-83.99285583},{"origin":"VPS","cancels":"1","total":"16","city":"Valparaiso","state":"FL","lat":30.48325,"long":-86.5254},{"origin":"XNA","cancels":"5","total":"25","city":"Fayetteville/Springdale/Rogers","state":"AR","lat":36.28186944,"long":-94.30681111}],"3":[{"origin":"ABQ","cancels":"8","total":"77","city":"Albuquerque","state":"NM","lat":35.04022222,"long":-106.6091944},{"origin":"ALB","cancels":"11","total":"24","city":"Albany","state":"NY","lat":42.74811944,"long":-73.80297861},{"origin":"AMA","cancels":"0","total":"21","city":"Amarillo","state":"TX","lat":35.2193725,"long":-101.7059272},{"origin":"ANC","cancels":"1","total":"48","city":"Anchorage","state":"AK","lat":61.17432028,"long":-149.9961856},{"origin":"ASE","cancels":"0","total":"27","city":"Aspen","state":"CO","lat":39.22316,"long":-106.868845},{"origin":"ATL","cancels":"35","total":"1057","city":"Atlanta","state":"GA","lat":33.64044444,"long":-84.42694444},{"origin":"AUS","cancels":"10","total":"123","city":"Austin","state":"TX","lat":30.19453278,"long":-97.66987194},{"origin":"BDL","cancels":"30","total":"62","city":"Windsor Locks","state":"CT","lat":41.93887417,"long":-72.68322833},{"origin":"BHM","cancels":"4","total":"37","city":"Birmingham","state":"AL","lat":33.56294306,"long":-86.75354972},{"origin":"BNA","cancels":"20","total":"159","city":"Nashville","state":"TN","lat":36.12447667,"long":-86.67818222},{"origin":"BOI","cancels":"0","total":"35","city":"Boise","state":"ID","lat":43.56444444,"long":-116.2227778},{"origin":"BOS","cancels":"166","total":"276","city":"Boston","state":"MA","lat":42.3643475,"long":-71.00517917},{"origin":"BTR","cancels":"1","total":"23","city":"Baton Rouge","state":"LA","lat":30.53316083,"long":-91.14963444},{"origin":"BUF","cancels":"23","total":"56","city":"Buffalo","state":"NY","lat":42.94052472,"long":-78.73216667},{"origin":"BUR","cancels":"6","total":"63","city":"Burbank","state":"CA","lat":34.20061917,"long":-118.3584969},{"origin":"BWI","cancels":"38","total":"254","city":"Baltimore","state":"MD","lat":39.17540167,"long":-76.66819833},{"origin":"BZN","cancels":"0","total":"15","city":"Bozeman","state":"MT","lat":45.77690139,"long":-111.1530072},{"origin":"CAE","cancels":"3","total":"18","city":"Columbia","state":"SC","lat":33.93884,"long":-81.11953944},{"origin":"CAK","cancels":"2","total":"17","city":"Akron","state":"OH","lat":40.91631194,"long":-81.44246556},{"origin":"CHS","cancels":"9","total":"40","city":"Charleston","state":"SC","lat":32.89864639,"long":-80.04050583},{"origin":"CLE","cancels":"32","total":"121","city":"Cleveland","state":"OH","lat":41.41089417,"long":-81.84939667},{"origin":"CLT","cancels":"27","total":"332","city":"Charlotte","state":"NC","lat":35.21401111,"long":-80.94312583},{"origin":"CMH","cancels":"13","total":"71","city":"Columbus","state":"OH","lat":39.99798528,"long":-82.89188278},{"origin":"COS","cancels":"1","total":"29","city":"Colorado Springs","state":"CO","lat":38.80580556,"long":-104.70025},{"origin":"CRP","cancels":"4","total":"19","city":"Corpus Christi","state":"TX","lat":27.77036083,"long":-97.50121528},{"origin":"CVG","cancels":"12","total":"66","city":"Covington","state":"KY","lat":39.04614278,"long":-84.6621725},{"origin":"DAL","cancels":"16","total":"136","city":"Dallas","state":"TX","lat":32.84711389,"long":-96.85177222},{"origin":"DAY","cancels":"4","total":"24","city":"Dayton","state":"OH","lat":39.90237583,"long":-84.219375},{"origin":"DCA","cancels":"31","total":"173","city":"Arlington","state":"VA","lat":38.85208333,"long":-77.03772222},{"origin":"DEN","cancels":"53","total":"689","city":"Denver","state":"CO","lat":39.85840806,"long":-104.6670019},{"origin":"DFW","cancels":"24","total":"797","city":"Dallas-Fort Worth","state":"TX","lat":32.89595056,"long":-97.0372},{"origin":"DSM","cancels":"5","total":"27","city":"Des Moines","state":"IA","lat":41.53493306,"long":-93.66068222},{"origin":"DTW","cancels":"27","total":"253","city":"Detroit","state":"MI","lat":42.21205889,"long":-83.34883583},{"origin":"ELP","cancels":"3","total":"54","city":"El Paso","state":"TX","lat":31.80666667,"long":-106.3778056},{"origin":"EUG","cancels":"1","total":"18","city":"Eugene","state":"OR","lat":44.12326,"long":-123.2186856},{"origin":"EWR","cancels":"186","total":"336","city":"Newark","state":"NJ","lat":40.69249722,"long":-74.16866056},{"origin":"EYW","cancels":"0","total":"15","city":"Key West","state":"FL","lat":24.55611111,"long":-81.75955556},{"origin":"FAR","cancels":"0","total":"18","city":"Fargo","state":"ND","lat":46.91934889,"long":-96.81498889},{"origin":"FAT","cancels":"0","total":"33","city":"Fresno","state":"CA","lat":36.77619444,"long":-119.7181389},{"origin":"FLL","cancels":"44","total":"212","city":"Ft. Lauderdale","state":"FL","lat":26.07258333,"long":-80.15275},{"origin":"FSD","cancels":"4","total":"18","city":"Sioux Falls","state":"SD","lat":43.58135111,"long":-96.74170028},{"origin":"GEG","cancels":"1","total":"25","city":"Spokane","state":"WA","lat":47.61985556,"long":-117.5338425},{"origin":"GRR","cancels":"6","total":"26","city":"Grand Rapids","state":"MI","lat":42.88081972,"long":-85.52276778},{"origin":"GSO","cancels":"3","total":"21","city":"Greensboro","state":"NC","lat":36.09774694,"long":-79.9372975},{"origin":"GSP","cancels":"6","total":"22","city":"Greer","state":"SC","lat":34.89566722,"long":-82.21885833},{"origin":"HNL","cancels":"0","total":"140","city":"Honolulu","state":"HI","lat":21.31869111,"long":-157.9224072},{"origin":"HOU","cancels":"14","total":"180","city":"Houston","state":"TX","lat":29.64541861,"long":-95.27888889},{"origin":"HPN","cancels":"11","total":"19","city":"White Plains","state":"NY","lat":41.06695778,"long":-73.70757444},{"origin":"HSV","cancels":"2","total":"18","city":"Huntsville","state":"AL","lat":34.6404475,"long":-86.77310944},{"origin":"IAD","cancels":"52","total":"170","city":"Chantilly","state":"VA","lat":38.94453194,"long":-77.45580972},{"origin":"IAH","cancels":"62","total":"530","city":"Houston","state":"TX","lat":29.98047222,"long":-95.33972222},{"origin":"ICT","cancels":"7","total":"30","city":"Wichita","state":"KS","lat":37.64995889,"long":-97.43304583},{"origin":"IND","cancels":"8","total":"77","city":"Indianapolis","state":"IN","lat":39.71732917,"long":-86.29438417},{"origin":"ITO","cancels":"0","total":"18","city":"Hilo","state":"HI","lat":19.72026306,"long":-155.0484703},{"origin":"JAN","cancels":"4","total":"25","city":"Jackson","state":"MS","lat":32.31116667,"long":-90.07588889},{"origin":"JAX","cancels":"7","total":"70","city":"Jacksonville","state":"FL","lat":30.49405556,"long":-81.68786111},{"origin":"JFK","cancels":"160","total":"282","city":"New York","state":"NY","lat":40.63975111,"long":-73.77892556},{"origin":"KOA","cancels":"0","total":"32","city":"Kailua/Kona","state":"HI","lat":19.73876583,"long":-156.0456314},{"origin":"LAS","cancels":"27","total":"376","city":"Las Vegas","state":"NV","lat":36.08036111,"long":-115.1523333},{"origin":"LAX","cancels":"42","total":"673","city":"Los Angeles","state":"CA","lat":33.94253611,"long":-118.4080744},{"origin":"LBB","cancels":"3","total":"20","city":"Lubbock","state":"TX","lat":33.66363889,"long":-101.8227778},{"origin":"LFT","cancels":"2","total":"17","city":"Lafayette","state":"LA","lat":30.20527972,"long":-91.987655},{"origin":"LGA","cancels":"154","total":"291","city":"New York","state":"NY","lat":40.77724306,"long":-73.87260917},{"origin":"LGB","cancels":"6","total":"34","city":"Long Beach","state":"CA","lat":33.81772222,"long":-118.1516111},{"origin":"LIH","cancels":"0","total":"31","city":"Lihue","state":"HI","lat":21.97598306,"long":-159.3389581},{"origin":"LIT","cancels":"3","total":"38","city":"Little Rock","state":"AR","lat":34.72939611,"long":-92.22424556},{"origin":"MAF","cancels":"4","total":"27","city":"Midland","state":"TX","lat":31.94252778,"long":-102.2019139},{"origin":"MCI","cancels":"14","total":"131","city":"Kansas City","state":"MO","lat":39.29760528,"long":-94.71390556},{"origin":"MCO","cancels":"40","total":"330","city":"Orlando","state":"FL","lat":28.42888889,"long":-81.31602778},{"origin":"MDW","cancels":"145","total":"232","city":"Chicago","state":"IL","lat":41.7859825,"long":-87.75242444},{"origin":"MEM","cancels":"11","total":"48","city":"Memphis","state":"TN","lat":35.04241667,"long":-89.97666667},{"origin":"MHT","cancels":"10","total":"21","city":"Manchester","state":"NH","lat":42.93451639,"long":-71.43705583},{"origin":"MIA","cancels":"22","total":"249","city":"Miami","state":"FL","lat":25.79325,"long":-80.29055556},{"origin":"MKE","cancels":"4","total":"93","city":"Milwaukee","state":"WI","lat":42.94722222,"long":-87.89658333},{"origin":"MOB","cancels":"0","total":"16","city":"Mobile","state":"AL","lat":30.69141667,"long":-88.24283333},{"origin":"MSN","cancels":"2","total":"24","city":"Madison","state":"WI","lat":43.13985778,"long":-89.33751361},{"origin":"MSP","cancels":"25","total":"291","city":"Minneapolis","state":"MN","lat":44.88054694,"long":-93.2169225},{"origin":"MSY","cancels":"7","total":"110","city":"New Orleans","state":"LA","lat":29.99338889,"long":-90.25802778},{"origin":"OAK","cancels":"14","total":"122","city":"Oakland","state":"CA","lat":37.72129083,"long":-122.2207167},{"origin":"OGG","cancels":"2","total":"62","city":"Kahului","state":"HI","lat":20.89864972,"long":-156.4304578},{"origin":"OKC","cancels":"9","total":"62","city":"Oklahoma City","state":"OK","lat":35.39308833,"long":-97.60073389},{"origin":"OMA","cancels":"9","total":"57","city":"Omaha","state":"NE","lat":41.30251861,"long":-95.89417306},{"origin":"ONT","cancels":"5","total":"61","city":"Ontario","state":"CA","lat":34.056,"long":-117.6011944},{"origin":"ORD","cancels":"125","total":"733","city":"Chicago","state":"IL","lat":41.979595,"long":-87.90446417},{"origin":"ORF","cancels":"2","total":"35","city":"Norfolk","state":"VA","lat":36.89461111,"long":-76.20122222},{"origin":"PBI","cancels":"17","total":"87","city":"West Palm Beach","state":"FL","lat":26.68316194,"long":-80.09559417},{"origin":"PDX","cancels":"11","total":"165","city":"Portland","state":"OR","lat":45.58872222,"long":-122.5975},{"origin":"PHL","cancels":"77","total":"209","city":"Philadelphia","state":"PA","lat":39.87195278,"long":-75.24114083},{"origin":"PHX","cancels":"18","total":"494","city":"Phoenix","state":"AZ","lat":33.43416667,"long":-112.0080556},{"origin":"PIT","cancels":"16","total":"79","city":"Pittsburgh","state":"PA","lat":40.49146583,"long":-80.23287083},{"origin":"PNS","cancels":"0","total":"24","city":"Pensacola","state":"FL","lat":30.47330556,"long":-87.18744444},{"origin":"PSP","cancels":"2","total":"41","city":"Palm Springs","state":"CA","lat":33.82921556,"long":-116.5062531},{"origin":"PVD","cancels":"18","total":"33","city":"Providence","state":"RI","lat":41.72399917,"long":-71.42822111},{"origin":"RDU","cancels":"24","total":"119","city":"Raleigh","state":"NC","lat":35.87763889,"long":-78.78747222},{"origin":"RIC","cancels":"10","total":"43","city":"Richmond","state":"VA","lat":37.50516667,"long":-77.31966667},{"origin":"RNO","cancels":"1","total":"45","city":"Reno","state":"NV","lat":39.49857611,"long":-119.7680647},{"origin":"ROC","cancels":"10","total":"25","city":"Rochester","state":"NY","lat":43.11886611,"long":-77.67238389},{"origin":"RSW","cancels":"11","total":"97","city":"Ft. Myers","state":"FL","lat":26.53616667,"long":-81.75516667},{"origin":"SAN","cancels":"27","total":"223","city":"San Diego","state":"CA","lat":32.73355611,"long":-117.1896567},{"origin":"SAT","cancels":"7","total":"101","city":"San Antonio","state":"TX","lat":29.53369444,"long":-98.46977778},{"origin":"SAV","cancels":"4","total":"22","city":"Savannah","state":"GA","lat":32.12758333,"long":-81.20213889},{"origin":"SBA","cancels":"0","total":"27","city":"Santa Barbara","state":"CA","lat":34.42621194,"long":-119.8403733},{"origin":"SDF","cancels":"4","total":"39","city":"Louisville","state":"KY","lat":38.17438889,"long":-85.736},{"origin":"SEA","cancels":"11","total":"292","city":"Seattle","state":"WA","lat":47.44898194,"long":-122.3093131},{"origin":"SFO","cancels":"34","total":"491","city":"San Francisco","state":"CA","lat":37.61900194,"long":-122.3748433},{"origin":"SGF","cancels":"5","total":"18","city":"Springfield","state":"MO","lat":37.24432611,"long":-93.38685806},{"origin":"SHV","cancels":"2","total":"21","city":"Shreveport","state":"LA","lat":32.4466275,"long":-93.82559833},{"origin":"SJC","cancels":"9","total":"118","city":"San Jose","state":"CA","lat":37.36186194,"long":-121.9290089},{"origin":"SJU","cancels":"17","total":"93","city":"San Juan","state":"PR","lat":18.43941667,"long":-66.00183333},{"origin":"SLC","cancels":"12","total":"328","city":"Salt Lake City","state":"UT","lat":40.78838778,"long":-111.9777731},{"origin":"SMF","cancels":"6","total":"120","city":"Sacramento","state":"CA","lat":38.69542167,"long":-121.5907669},{"origin":"SNA","cancels":"12","total":"113","city":"Santa Ana","state":"CA","lat":33.67565861,"long":-117.8682225},{"origin":"STL","cancels":"18","total":"153","city":"St Louis","state":"MO","lat":38.74768694,"long":-90.35998972},{"origin":"STT","cancels":"2","total":"15","city":"Charlotte Amalie","state":"VI","lat":18.33730556,"long":-64.97336111},{"origin":"SYR","cancels":"6","total":"21","city":"Syracuse","state":"NY","lat":43.11118694,"long":-76.10631056},{"origin":"TPA","cancels":"31","total":"196","city":"Tampa","state":"FL","lat":27.97547222,"long":-82.53325},{"origin":"TUL","cancels":"7","total":"54","city":"Tulsa","state":"OK","lat":36.19837222,"long":-95.88824167},{"origin":"TUS","cancels":"0","total":"49","city":"Tucson","state":"AZ","lat":32.11608333,"long":-110.9410278},{"origin":"TYS","cancels":"4","total":"24","city":"Knoxville","state":"TN","lat":35.81248722,"long":-83.99285583},{"origin":"VPS","cancels":"1","total":"17","city":"Valparaiso","state":"FL","lat":30.48325,"long":-86.5254},{"origin":"XNA","cancels":"4","total":"25","city":"Fayetteville/Springdale/Rogers","state":"AR","lat":36.28186944,"long":-94.30681111}],"4":[{"origin":"ABQ","cancels":"5","total":"66","city":"Albuquerque","state":"NM","lat":35.04022222,"long":-106.6091944},{"origin":"ALB","cancels":"0","total":"25","city":"Albany","state":"NY","lat":42.74811944,"long":-73.80297861},{"origin":"AMA","cancels":"1","total":"17","city":"Amarillo","state":"TX","lat":35.2193725,"long":-101.7059272},{"origin":"ANC","cancels":"3","total":"46","city":"Anchorage","state":"AK","lat":61.17432028,"long":-149.9961856},{"origin":"ASE","cancels":"9","total":"28","city":"Aspen","state":"CO","lat":39.22316,"long":-106.868845},{"origin":"ATL","cancels":"24","total":"959","city":"Atlanta","state":"GA","lat":33.64044444,"long":-84.42694444},{"origin":"AUS","cancels":"12","total":"98","city":"Austin","state":"TX","lat":30.19453278,"long":-97.66987194},{"origin":"BDL","cancels":"6","total":"48","city":"Windsor Locks","state":"CT","lat":41.93887417,"long":-72.68322833},{"origin":"BHM","cancels":"1","total":"29","city":"Birmingham","state":"AL","lat":33.56294306,"long":-86.75354972},{"origin":"BNA","cancels":"11","total":"121","city":"Nashville","state":"TN","lat":36.12447667,"long":-86.67818222},{"origin":"BOI","cancels":"1","total":"29","city":"Boise","state":"ID","lat":43.56444444,"long":-116.2227778},{"origin":"BOS","cancels":"25","total":"227","city":"Boston","state":"MA","lat":42.3643475,"long":-71.00517917},{"origin":"BTR","cancels":"1","total":"22","city":"Baton Rouge","state":"LA","lat":30.53316083,"long":-91.14963444},{"origin":"BUF","cancels":"3","total":"45","city":"Buffalo","state":"NY","lat":42.94052472,"long":-78.73216667},{"origin":"BUR","cancels":"4","total":"54","city":"Burbank","state":"CA","lat":34.20061917,"long":-118.3584969},{"origin":"BWI","cancels":"14","total":"212","city":"Baltimore","state":"MD","lat":39.17540167,"long":-76.66819833},{"origin":"BZN","cancels":"3","total":"16","city":"Bozeman","state":"MT","lat":45.77690139,"long":-111.1530072},{"origin":"CAK","cancels":"0","total":"17","city":"Akron","state":"OH","lat":40.91631194,"long":-81.44246556},{"origin":"CHS","cancels":"5","total":"37","city":"Charleston","state":"SC","lat":32.89864639,"long":-80.04050583},{"origin":"CLE","cancels":"13","total":"102","city":"Cleveland","state":"OH","lat":41.41089417,"long":-81.84939667},{"origin":"CLT","cancels":"10","total":"268","city":"Charlotte","state":"NC","lat":35.21401111,"long":-80.94312583},{"origin":"CMH","cancels":"5","total":"55","city":"Columbus","state":"OH","lat":39.99798528,"long":-82.89188278},{"origin":"COS","cancels":"3","total":"29","city":"Colorado Springs","state":"CO","lat":38.80580556,"long":-104.70025},{"origin":"CRP","cancels":"1","total":"15","city":"Corpus Christi","state":"TX","lat":27.77036083,"long":-97.50121528},{"origin":"CVG","cancels":"5","total":"53","city":"Covington","state":"KY","lat":39.04614278,"long":-84.6621725},{"origin":"DAL","cancels":"6","total":"89","city":"Dallas","state":"TX","lat":32.84711389,"long":-96.85177222},{"origin":"DAY","cancels":"2","total":"18","city":"Dayton","state":"OH","lat":39.90237583,"long":-84.219375},{"origin":"DCA","cancels":"7","total":"140","city":"Arlington","state":"VA","lat":38.85208333,"long":-77.03772222},{"origin":"DEN","cancels":"91","total":"606","city":"Denver","state":"CO","lat":39.85840806,"long":-104.6670019},{"origin":"DFW","cancels":"15","total":"665","city":"Dallas-Fort Worth","state":"TX","lat":32.89595056,"long":-97.0372},{"origin":"DSM","cancels":"7","total":"22","city":"Des Moines","state":"IA","lat":41.53493306,"long":-93.66068222},{"origin":"DTW","cancels":"14","total":"219","city":"Detroit","state":"MI","lat":42.21205889,"long":-83.34883583},{"origin":"ELP","cancels":"1","total":"44","city":"El Paso","state":"TX","lat":31.80666667,"long":-106.3778056},{"origin":"EUG","cancels":"3","total":"16","city":"Eugene","state":"OR","lat":44.12326,"long":-123.2186856},{"origin":"EWR","cancels":"54","total":"263","city":"Newark","state":"NJ","lat":40.69249722,"long":-74.16866056},{"origin":"EYW","cancels":"5","total":"15","city":"Key West","state":"FL","lat":24.55611111,"long":-81.75955556},{"origin":"FAR","cancels":"7","total":"18","city":"Fargo","state":"ND","lat":46.91934889,"long":-96.81498889},{"origin":"FAT","cancels":"2","total":"31","city":"Fresno","state":"CA","lat":36.77619444,"long":-119.7181389},{"origin":"FLL","cancels":"28","total":"222","city":"Ft. Lauderdale","state":"FL","lat":26.07258333,"long":-80.15275},{"origin":"FSD","cancels":"4","total":"16","city":"Sioux Falls","state":"SD","lat":43.58135111,"long":-96.74170028},{"origin":"GEG","cancels":"0","total":"23","city":"Spokane","state":"WA","lat":47.61985556,"long":-117.5338425},{"origin":"GRR","cancels":"2","total":"22","city":"Grand Rapids","state":"MI","lat":42.88081972,"long":-85.52276778},{"origin":"GSO","cancels":"1","total":"16","city":"Greensboro","state":"NC","lat":36.09774694,"long":-79.9372975},{"origin":"GSP","cancels":"4","total":"18","city":"Greer","state":"SC","lat":34.89566722,"long":-82.21885833},{"origin":"HNL","cancels":"1","total":"129","city":"Honolulu","state":"HI","lat":21.31869111,"long":-157.9224072},{"origin":"HOU","cancels":"9","total":"134","city":"Houston","state":"TX","lat":29.64541861,"long":-95.27888889},{"origin":"HPN","cancels":"5","total":"18","city":"White Plains","state":"NY","lat":41.06695778,"long":-73.70757444},{"origin":"IAD","cancels":"22","total":"155","city":"Chantilly","state":"VA","lat":38.94453194,"long":-77.45580972},{"origin":"IAH","cancels":"58","total":"467","city":"Houston","state":"TX","lat":29.98047222,"long":-95.33972222},{"origin":"ICT","cancels":"4","total":"24","city":"Wichita","state":"KS","lat":37.64995889,"long":-97.43304583},{"origin":"IND","cancels":"4","total":"67","city":"Indianapolis","state":"IN","lat":39.71732917,"long":-86.29438417},{"origin":"ITO","cancels":"0","total":"15","city":"Hilo","state":"HI","lat":19.72026306,"long":-155.0484703},{"origin":"JAC","cancels":"2","total":"17","city":"Jackson","state":"WY","lat":43.60732417,"long":-110.7377389},{"origin":"JAN","cancels":"1","total":"22","city":"Jackson","state":"MS","lat":32.31116667,"long":-90.07588889},{"origin":"JAX","cancels":"9","total":"57","city":"Jacksonville","state":"FL","lat":30.49405556,"long":-81.68786111},{"origin":"JFK","cancels":"48","total":"266","city":"New York","state":"NY","lat":40.63975111,"long":-73.77892556},{"origin":"KOA","cancels":"1","total":"29","city":"Kailua/Kona","state":"HI","lat":19.73876583,"long":-156.0456314},{"origin":"LAS","cancels":"15","total":"341","city":"Las Vegas","state":"NV","lat":36.08036111,"long":-115.1523333},{"origin":"LAX","cancels":"27","total":"595","city":"Los Angeles","state":"CA","lat":33.94253611,"long":-118.4080744},{"origin":"LBB","cancels":"1","total":"17","city":"Lubbock","state":"TX","lat":33.66363889,"long":-101.8227778},{"origin":"LGA","cancels":"25","total":"207","city":"New York","state":"NY","lat":40.77724306,"long":-73.87260917},{"origin":"LGB","cancels":"7","total":"33","city":"Long Beach","state":"CA","lat":33.81772222,"long":-118.1516111},{"origin":"LIH","cancels":"0","total":"31","city":"Lihue","state":"HI","lat":21.97598306,"long":-159.3389581},{"origin":"LIT","cancels":"4","total":"30","city":"Little Rock","state":"AR","lat":34.72939611,"long":-92.22424556},{"origin":"MAF","cancels":"2","total":"21","city":"Midland","state":"TX","lat":31.94252778,"long":-102.2019139},{"origin":"MCI","cancels":"9","total":"107","city":"Kansas City","state":"MO","lat":39.29760528,"long":-94.71390556},{"origin":"MCO","cancels":"29","total":"350","city":"Orlando","state":"FL","lat":28.42888889,"long":-81.31602778},{"origin":"MDW","cancels":"10","total":"189","city":"Chicago","state":"IL","lat":41.7859825,"long":-87.75242444},{"origin":"MEM","cancels":"4","total":"40","city":"Memphis","state":"TN","lat":35.04241667,"long":-89.97666667},{"origin":"MHT","cancels":"1","total":"17","city":"Manchester","state":"NH","lat":42.93451639,"long":-71.43705583},{"origin":"MIA","cancels":"8","total":"247","city":"Miami","state":"FL","lat":25.79325,"long":-80.29055556},{"origin":"MKE","cancels":"5","total":"71","city":"Milwaukee","state":"WI","lat":42.94722222,"long":-87.89658333},{"origin":"MSN","cancels":"3","total":"19","city":"Madison","state":"WI","lat":43.13985778,"long":-89.33751361},{"origin":"MSP","cancels":"8","total":"265","city":"Minneapolis","state":"MN","lat":44.88054694,"long":-93.2169225},{"origin":"MSY","cancels":"7","total":"91","city":"New Orleans","state":"LA","lat":29.99338889,"long":-90.25802778},{"origin":"OAK","cancels":"6","total":"100","city":"Oakland","state":"CA","lat":37.72129083,"long":-122.2207167},{"origin":"OGG","cancels":"1","total":"61","city":"Kahului","state":"HI","lat":20.89864972,"long":-156.4304578},{"origin":"OKC","cancels":"3","total":"48","city":"Oklahoma City","state":"OK","lat":35.39308833,"long":-97.60073389},{"origin":"OMA","cancels":"4","total":"45","city":"Omaha","state":"NE","lat":41.30251861,"long":-95.89417306},{"origin":"ONT","cancels":"4","total":"53","city":"Ontario","state":"CA","lat":34.056,"long":-117.6011944},{"origin":"ORD","cancels":"107","total":"592","city":"Chicago","state":"IL","lat":41.979595,"long":-87.90446417},{"origin":"ORF","cancels":"2","total":"30","city":"Norfolk","state":"VA","lat":36.89461111,"long":-76.20122222},{"origin":"PBI","cancels":"16","total":"83","city":"West Palm Beach","state":"FL","lat":26.68316194,"long":-80.09559417},{"origin":"PDX","cancels":"4","total":"154","city":"Portland","state":"OR","lat":45.58872222,"long":-122.5975},{"origin":"PHL","cancels":"8","total":"180","city":"Philadelphia","state":"PA","lat":39.87195278,"long":-75.24114083},{"origin":"PHX","cancels":"8","total":"449","city":"Phoenix","state":"AZ","lat":33.43416667,"long":-112.0080556},{"origin":"PIT","cancels":"5","total":"63","city":"Pittsburgh","state":"PA","lat":40.49146583,"long":-80.23287083},{"origin":"PNS","cancels":"2","total":"22","city":"Pensacola","state":"FL","lat":30.47330556,"long":-87.18744444},{"origin":"PSP","cancels":"2","total":"40","city":"Palm Springs","state":"CA","lat":33.82921556,"long":-116.5062531},{"origin":"PVD","cancels":"3","total":"29","city":"Providence","state":"RI","lat":41.72399917,"long":-71.42822111},{"origin":"RDU","cancels":"10","total":"92","city":"Raleigh","state":"NC","lat":35.87763889,"long":-78.78747222},{"origin":"RIC","cancels":"8","total":"37","city":"Richmond","state":"VA","lat":37.50516667,"long":-77.31966667},{"origin":"RNO","cancels":"2","total":"43","city":"Reno","state":"NV","lat":39.49857611,"long":-119.7680647},{"origin":"ROC","cancels":"5","total":"21","city":"Rochester","state":"NY","lat":43.11886611,"long":-77.67238389},{"origin":"RSW","cancels":"10","total":"100","city":"Ft. Myers","state":"FL","lat":26.53616667,"long":-81.75516667},{"origin":"SAN","cancels":"14","total":"189","city":"San Diego","state":"CA","lat":32.73355611,"long":-117.1896567},{"origin":"SAT","cancels":"5","total":"82","city":"San Antonio","state":"TX","lat":29.53369444,"long":-98.46977778},{"origin":"SAV","cancels":"4","total":"20","city":"Savannah","state":"GA","lat":32.12758333,"long":-81.20213889},{"origin":"SBA","cancels":"2","total":"22","city":"Santa Barbara","state":"CA","lat":34.42621194,"long":-119.8403733},{"origin":"SDF","cancels":"4","total":"32","city":"Louisville","state":"KY","lat":38.17438889,"long":-85.736},{"origin":"SEA","cancels":"7","total":"269","city":"Seattle","state":"WA","lat":47.44898194,"long":-122.3093131},{"origin":"SFO","cancels":"47","total":"437","city":"San Francisco","state":"CA","lat":37.61900194,"long":-122.3748433},{"origin":"SGF","cancels":"2","total":"16","city":"Springfield","state":"MO","lat":37.24432611,"long":-93.38685806},{"origin":"SHV","cancels":"1","total":"19","city":"Shreveport","state":"LA","lat":32.4466275,"long":-93.82559833},{"origin":"SJC","cancels":"5","total":"93","city":"San Jose","state":"CA","lat":37.36186194,"long":-121.9290089},{"origin":"SJU","cancels":"18","total":"98","city":"San Juan","state":"PR","lat":18.43941667,"long":-66.00183333},{"origin":"SLC","cancels":"11","total":"306","city":"Salt Lake City","state":"UT","lat":40.78838778,"long":-111.9777731},{"origin":"SMF","cancels":"5","total":"100","city":"Sacramento","state":"CA","lat":38.69542167,"long":-121.5907669},{"origin":"SNA","cancels":"1","total":"89","city":"Santa Ana","state":"CA","lat":33.67565861,"long":-117.8682225},{"origin":"STL","cancels":"6","total":"107","city":"St Louis","state":"MO","lat":38.74768694,"long":-90.35998972},{"origin":"STT","cancels":"0","total":"21","city":"Charlotte Amalie","state":"VI","lat":18.33730556,"long":-64.97336111},{"origin":"SYR","cancels":"2","total":"15","city":"Syracuse","state":"NY","lat":43.11118694,"long":-76.10631056},{"origin":"TPA","cancels":"9","total":"184","city":"Tampa","state":"FL","lat":27.97547222,"long":-82.53325},{"origin":"TUL","cancels":"3","total":"47","city":"Tulsa","state":"OK","lat":36.19837222,"long":-95.88824167},{"origin":"TUS","cancels":"4","total":"48","city":"Tucson","state":"AZ","lat":32.11608333,"long":-110.9410278},{"origin":"TYS","cancels":"3","total":"17","city":"Knoxville","state":"TN","lat":35.81248722,"long":-83.99285583},{"origin":"VPS","cancels":"1","total":"15","city":"Valparaiso","state":"FL","lat":30.48325,"long":-86.5254},{"origin":"XNA","cancels":"3","total":"17","city":"Fayetteville/Springdale/Rogers","state":"AR","lat":36.28186944,"long":-94.30681111}],"5":[{"origin":"ABQ","cancels":"3","total":"72","city":"Albuquerque","state":"NM","lat":35.04022222,"long":-106.6091944},{"origin":"ALB","cancels":"3","total":"22","city":"Albany","state":"NY","lat":42.74811944,"long":-73.80297861},{"origin":"AMA","cancels":"2","total":"20","city":"Amarillo","state":"TX","lat":35.2193725,"long":-101.7059272},{"origin":"ANC","cancels":"1","total":"47","city":"Anchorage","state":"AK","lat":61.17432028,"long":-149.9961856},{"origin":"ASE","cancels":"25","total":"29","city":"Aspen","state":"CO","lat":39.22316,"long":-106.868845},{"origin":"ATL","cancels":"75","total":"1028","city":"Atlanta","state":"GA","lat":33.64044444,"long":-84.42694444},{"origin":"AUS","cancels":"9","total":"114","city":"Austin","state":"TX","lat":30.19453278,"long":-97.66987194},{"origin":"BDL","cancels":"8","total":"60","city":"Windsor Locks","state":"CT","lat":41.93887417,"long":-72.68322833},{"origin":"BHM","cancels":"4","total":"36","city":"Birmingham","state":"AL","lat":33.56294306,"long":-86.75354972},{"origin":"BNA","cancels":"21","total":"144","city":"Nashville","state":"TN","lat":36.12447667,"long":-86.67818222},{"origin":"BOI","cancels":"1","total":"32","city":"Boise","state":"ID","lat":43.56444444,"long":-116.2227778},{"origin":"BOS","cancels":"35","total":"272","city":"Boston","state":"MA","lat":42.3643475,"long":-71.00517917},{"origin":"BTR","cancels":"1","total":"21","city":"Baton Rouge","state":"LA","lat":30.53316083,"long":-91.14963444},{"origin":"BUF","cancels":"17","total":"54","city":"Buffalo","state":"NY","lat":42.94052472,"long":-78.73216667},{"origin":"BUR","cancels":"1","total":"53","city":"Burbank","state":"CA","lat":34.20061917,"long":-118.3584969},{"origin":"BWI","cancels":"24","total":"232","city":"Baltimore","state":"MD","lat":39.17540167,"long":-76.66819833},{"origin":"BZN","cancels":"3","total":"16","city":"Bozeman","state":"MT","lat":45.77690139,"long":-111.1530072},{"origin":"CAE","cancels":"4","total":"17","city":"Columbia","state":"SC","lat":33.93884,"long":-81.11953944},{"origin":"CAK","cancels":"1","total":"16","city":"Akron","state":"OH","lat":40.91631194,"long":-81.44246556},{"origin":"CHS","cancels":"9","total":"39","city":"Charleston","state":"SC","lat":32.89864639,"long":-80.04050583},{"origin":"CLE","cancels":"34","total":"111","city":"Cleveland","state":"OH","lat":41.41089417,"long":-81.84939667},{"origin":"CLT","cancels":"21","total":"320","city":"Charlotte","state":"NC","lat":35.21401111,"long":-80.94312583},{"origin":"CMH","cancels":"18","total":"68","city":"Columbus","state":"OH","lat":39.99798528,"long":-82.89188278},{"origin":"COS","cancels":"7","total":"29","city":"Colorado Springs","state":"CO","lat":38.80580556,"long":-104.70025},{"origin":"CRP","cancels":"1","total":"16","city":"Corpus Christi","state":"TX","lat":27.77036083,"long":-97.50121528},{"origin":"CVG","cancels":"12","total":"62","city":"Covington","state":"KY","lat":39.04614278,"long":-84.6621725},{"origin":"DAL","cancels":"3","total":"112","city":"Dallas","state":"TX","lat":32.84711389,"long":-96.85177222},{"origin":"DAY","cancels":"7","total":"23","city":"Dayton","state":"OH","lat":39.90237583,"long":-84.219375},{"origin":"DCA","cancels":"29","total":"172","city":"Arlington","state":"VA","lat":38.85208333,"long":-77.03772222},{"origin":"DEN","cancels":"75","total":"647","city":"Denver","state":"CO","lat":39.85840806,"long":-104.6670019},{"origin":"DFW","cancels":"65","total":"774","city":"Dallas-Fort Worth","state":"TX","lat":32.89595056,"long":-97.0372},{"origin":"DSM","cancels":"10","total":"27","city":"Des Moines","state":"IA","lat":41.53493306,"long":-93.66068222},{"origin":"DTW","cancels":"79","total":"247","city":"Detroit","state":"MI","lat":42.21205889,"long":-83.34883583},{"origin":"ELP","cancels":"2","total":"49","city":"El Paso","state":"TX","lat":31.80666667,"long":-106.3778056},{"origin":"EUG","cancels":"4","total":"16","city":"Eugene","state":"OR","lat":44.12326,"long":-123.2186856},{"origin":"EWR","cancels":"70","total":"306","city":"Newark","state":"NJ","lat":40.69249722,"long":-74.16866056},{"origin":"EYW","cancels":"2","total":"15","city":"Key West","state":"FL","lat":24.55611111,"long":-81.75955556},{"origin":"FAR","cancels":"5","total":"18","city":"Fargo","state":"ND","lat":46.91934889,"long":-96.81498889},{"origin":"FAT","cancels":"0","total":"33","city":"Fresno","state":"CA","lat":36.77619444,"long":-119.7181389},{"origin":"FLL","cancels":"28","total":"205","city":"Ft. Lauderdale","state":"FL","lat":26.07258333,"long":-80.15275},{"origin":"FSD","cancels":"8","total":"17","city":"Sioux Falls","state":"SD","lat":43.58135111,"long":-96.74170028},{"origin":"GEG","cancels":"0","total":"26","city":"Spokane","state":"WA","lat":47.61985556,"long":-117.5338425},{"origin":"GRR","cancels":"14","total":"24","city":"Grand Rapids","state":"MI","lat":42.88081972,"long":-85.52276778},{"origin":"GSO","cancels":"4","total":"18","city":"Greensboro","state":"NC","lat":36.09774694,"long":-79.9372975},{"origin":"GSP","cancels":"5","total":"20","city":"Greer","state":"SC","lat":34.89566722,"long":-82.21885833},{"origin":"HNL","cancels":"4","total":"133","city":"Honolulu","state":"HI","lat":21.31869111,"long":-157.9224072},{"origin":"HOU","cancels":"7","total":"154","city":"Houston","state":"TX","lat":29.64541861,"long":-95.27888889},{"origin":"HPN","cancels":"8","total":"19","city":"White Plains","state":"NY","lat":41.06695778,"long":-73.70757444},{"origin":"HSV","cancels":"3","total":"18","city":"Huntsville","state":"AL","lat":34.6404475,"long":-86.77310944},{"origin":"IAD","cancels":"37","total":"163","city":"Chantilly","state":"VA","lat":38.94453194,"long":-77.45580972},{"origin":"IAH","cancels":"70","total":"497","city":"Houston","state":"TX","lat":29.98047222,"long":-95.33972222},{"origin":"ICT","cancels":"11","total":"28","city":"Wichita","state":"KS","lat":37.64995889,"long":-97.43304583},{"origin":"IND","cancels":"64","total":"78","city":"Indianapolis","state":"IN","lat":39.71732917,"long":-86.29438417},{"origin":"ITO","cancels":"0","total":"16","city":"Hilo","state":"HI","lat":19.72026306,"long":-155.0484703},{"origin":"JAN","cancels":"1","total":"24","city":"Jackson","state":"MS","lat":32.31116667,"long":-90.07588889},{"origin":"JAX","cancels":"7","total":"63","city":"Jacksonville","state":"FL","lat":30.49405556,"long":-81.68786111},{"origin":"JFK","cancels":"64","total":"280","city":"New York","state":"NY","lat":40.63975111,"long":-73.77892556},{"origin":"KOA","cancels":"1","total":"31","city":"Kailua/Kona","state":"HI","lat":19.73876583,"long":-156.0456314},{"origin":"LAS","cancels":"20","total":"356","city":"Las Vegas","state":"NV","lat":36.08036111,"long":-115.1523333},{"origin":"LAX","cancels":"35","total":"642","city":"Los Angeles","state":"CA","lat":33.94253611,"long":-118.4080744},{"origin":"LBB","cancels":"1","total":"19","city":"Lubbock","state":"TX","lat":33.66363889,"long":-101.8227778},{"origin":"LFT","cancels":"2","total":"16","city":"Lafayette","state":"LA","lat":30.20527972,"long":-91.987655},{"origin":"LGA","cancels":"73","total":"278","city":"New York","state":"NY","lat":40.77724306,"long":-73.87260917},{"origin":"LGB","cancels":"5","total":"33","city":"Long Beach","state":"CA","lat":33.81772222,"long":-118.1516111},{"origin":"LIH","cancels":"0","total":"29","city":"Lihue","state":"HI","lat":21.97598306,"long":-159.3389581},{"origin":"LIT","cancels":"6","total":"37","city":"Little Rock","state":"AR","lat":34.72939611,"long":-92.22424556},{"origin":"MAF","cancels":"0","total":"24","city":"Midland","state":"TX","lat":31.94252778,"long":-102.2019139},{"origin":"MCI","cancels":"19","total":"120","city":"Kansas City","state":"MO","lat":39.29760528,"long":-94.71390556},{"origin":"MCO","cancels":"51","total":"329","city":"Orlando","state":"FL","lat":28.42888889,"long":-81.31602778},{"origin":"MDW","cancels":"100","total":"211","city":"Chicago","state":"IL","lat":41.7859825,"long":-87.75242444},{"origin":"MEM","cancels":"10","total":"45","city":"Memphis","state":"TN","lat":35.04241667,"long":-89.97666667},{"origin":"MHT","cancels":"6","total":"18","city":"Manchester","state":"NH","lat":42.93451639,"long":-71.43705583},{"origin":"MIA","cancels":"16","total":"249","city":"Miami","state":"FL","lat":25.79325,"long":-80.29055556},{"origin":"MKE","cancels":"15","total":"82","city":"Milwaukee","state":"WI","lat":42.94722222,"long":-87.89658333},{"origin":"MOB","cancels":"1","total":"15","city":"Mobile","state":"AL","lat":30.69141667,"long":-88.24283333},{"origin":"MSN","cancels":"6","total":"23","city":"Madison","state":"WI","lat":43.13985778,"long":-89.33751361},{"origin":"MSP","cancels":"28","total":"285","city":"Minneapolis","state":"MN","lat":44.88054694,"long":-93.2169225},{"origin":"MSY","cancels":"8","total":"104","city":"New Orleans","state":"LA","lat":29.99338889,"long":-90.25802778},{"origin":"OAK","cancels":"4","total":"104","city":"Oakland","state":"CA","lat":37.72129083,"long":-122.2207167},{"origin":"OGG","cancels":"0","total":"61","city":"Kahului","state":"HI","lat":20.89864972,"long":-156.4304578},{"origin":"OKC","cancels":"10","total":"57","city":"Oklahoma City","state":"OK","lat":35.39308833,"long":-97.60073389},{"origin":"OMA","cancels":"13","total":"49","city":"Omaha","state":"NE","lat":41.30251861,"long":-95.89417306},{"origin":"ONT","cancels":"2","total":"57","city":"Ontario","state":"CA","lat":34.056,"long":-117.6011944},{"origin":"ORD","cancels":"435","total":"689","city":"Chicago","state":"IL","lat":41.979595,"long":-87.90446417},{"origin":"ORF","cancels":"4","total":"31","city":"Norfolk","state":"VA","lat":36.89461111,"long":-76.20122222},{"origin":"PBI","cancels":"14","total":"81","city":"West Palm Beach","state":"FL","lat":26.68316194,"long":-80.09559417},{"origin":"PDX","cancels":"10","total":"158","city":"Portland","state":"OR","lat":45.58872222,"long":-122.5975},{"origin":"PHL","cancels":"16","total":"199","city":"Philadelphia","state":"PA","lat":39.87195278,"long":-75.24114083},{"origin":"PHX","cancels":"29","total":"464","city":"Phoenix","state":"AZ","lat":33.43416667,"long":-112.0080556},{"origin":"PIT","cancels":"8","total":"76","city":"Pittsburgh","state":"PA","lat":40.49146583,"long":-80.23287083},{"origin":"PNS","cancels":"2","total":"24","city":"Pensacola","state":"FL","lat":30.47330556,"long":-87.18744444},{"origin":"PSP","cancels":"1","total":"40","city":"Palm Springs","state":"CA","lat":33.82921556,"long":-116.5062531},{"origin":"PVD","cancels":"2","total":"29","city":"Providence","state":"RI","lat":41.72399917,"long":-71.42822111},{"origin":"RDU","cancels":"12","total":"105","city":"Raleigh","state":"NC","lat":35.87763889,"long":-78.78747222},{"origin":"RIC","cancels":"10","total":"44","city":"Richmond","state":"VA","lat":37.50516667,"long":-77.31966667},{"origin":"RNO","cancels":"2","total":"43","city":"Reno","state":"NV","lat":39.49857611,"long":-119.7680647},{"origin":"ROC","cancels":"6","total":"24","city":"Rochester","state":"NY","lat":43.11886611,"long":-77.67238389},{"origin":"RSW","cancels":"20","total":"95","city":"Ft. Myers","state":"FL","lat":26.53616667,"long":-81.75516667},{"origin":"SAN","cancels":"12","total":"211","city":"San Diego","state":"CA","lat":32.73355611,"long":-117.1896567},{"origin":"SAT","cancels":"7","total":"95","city":"San Antonio","state":"TX","lat":29.53369444,"long":-98.46977778},{"origin":"SAV","cancels":"4","total":"20","city":"Savannah","state":"GA","lat":32.12758333,"long":-81.20213889},{"origin":"SBA","cancels":"0","total":"26","city":"Santa Barbara","state":"CA","lat":34.42621194,"long":-119.8403733},{"origin":"SDF","cancels":"6","total":"40","city":"Louisville","state":"KY","lat":38.17438889,"long":-85.736},{"origin":"SEA","cancels":"11","total":"279","city":"Seattle","state":"WA","lat":47.44898194,"long":-122.3093131},{"origin":"SFO","cancels":"33","total":"470","city":"San Francisco","state":"CA","lat":37.61900194,"long":-122.3748433},{"origin":"SGF","cancels":"7","total":"18","city":"Springfield","state":"MO","lat":37.24432611,"long":-93.38685806},{"origin":"SHV","cancels":"1","total":"21","city":"Shreveport","state":"LA","lat":32.4466275,"long":-93.82559833},{"origin":"SJC","cancels":"2","total":"105","city":"San Jose","state":"CA","lat":37.36186194,"long":-121.9290089},{"origin":"SJU","cancels":"17","total":"96","city":"San Juan","state":"PR","lat":18.43941667,"long":-66.00183333},{"origin":"SLC","cancels":"9","total":"322","city":"Salt Lake City","state":"UT","lat":40.78838778,"long":-111.9777731},{"origin":"SMF","cancels":"3","total":"111","city":"Sacramento","state":"CA","lat":38.69542167,"long":-121.5907669},{"origin":"SNA","cancels":"7","total":"100","city":"Santa Ana","state":"CA","lat":33.67565861,"long":-117.8682225},{"origin":"STL","cancels":"109","total":"134","city":"St Louis","state":"MO","lat":38.74768694,"long":-90.35998972},{"origin":"STT","cancels":"1","total":"17","city":"Charlotte Amalie","state":"VI","lat":18.33730556,"long":-64.97336111},{"origin":"SYR","cancels":"8","total":"18","city":"Syracuse","state":"NY","lat":43.11118694,"long":-76.10631056},{"origin":"TPA","cancels":"15","total":"184","city":"Tampa","state":"FL","lat":27.97547222,"long":-82.53325},{"origin":"TUL","cancels":"10","total":"50","city":"Tulsa","state":"OK","lat":36.19837222,"long":-95.88824167},{"origin":"TUS","cancels":"4","total":"47","city":"Tucson","state":"AZ","lat":32.11608333,"long":-110.9410278},{"origin":"TYS","cancels":"6","total":"25","city":"Knoxville","state":"TN","lat":35.81248722,"long":-83.99285583},{"origin":"VPS","cancels":"1","total":"17","city":"Valparaiso","state":"FL","lat":30.48325,"long":-86.5254},{"origin":"XNA","cancels":"7","total":"25","city":"Fayetteville/Springdale/Rogers","state":"AR","lat":36.28186944,"long":-94.30681111}],"6":[{"origin":"ABQ","cancels":"6","total":"74","city":"Albuquerque","state":"NM","lat":35.04022222,"long":-106.6091944},{"origin":"ALB","cancels":"7","total":"23","city":"Albany","state":"NY","lat":42.74811944,"long":-73.80297861},{"origin":"AMA","cancels":"7","total":"20","city":"Amarillo","state":"TX","lat":35.2193725,"long":-101.7059272},{"origin":"ANC","cancels":"0","total":"47","city":"Anchorage","state":"AK","lat":61.17432028,"long":-149.9961856},{"origin":"ASE","cancels":"27","total":"27","city":"Aspen","state":"CO","lat":39.22316,"long":-106.868845},{"origin":"ATL","cancels":"116","total":"1053","city":"Atlanta","state":"GA","lat":33.64044444,"long":-84.42694444},{"origin":"AUS","cancels":"12","total":"120","city":"Austin","state":"TX","lat":30.19453278,"long":-97.66987194},{"origin":"BDL","cancels":"19","total":"60","city":"Windsor Locks","state":"CT","lat":41.93887417,"long":-72.68322833},{"origin":"BHM","cancels":"7","total":"38","city":"Birmingham","state":"AL","lat":33.56294306,"long":-86.75354972},{"origin":"BNA","cancels":"33","total":"162","city":"Nashville","state":"TN","lat":36.12447667,"long":-86.67818222},{"origin":"BOI","cancels":"0","total":"30","city":"Boise","state":"ID","lat":43.56444444,"long":-116.2227778},{"origin":"BOS","cancels":"82","total":"279","city":"Boston","state":"MA","lat":42.3643475,"long":-71.00517917},{"origin":"BTR","cancels":"4","total":"23","city":"Baton Rouge","state":"LA","lat":30.53316083,"long":-91.14963444},{"origin":"BUF","cancels":"27","total":"54","city":"Buffalo","state":"NY","lat":42.94052472,"long":-78.73216667},{"origin":"BUR","cancels":"3","total":"60","city":"Burbank","state":"CA","lat":34.20061917,"long":-118.3584969},{"origin":"BWI","cancels":"27","total":"250","city":"Baltimore","state":"MD","lat":39.17540167,"long":-76.66819833},{"origin":"CAE","cancels":"8","total":"19","city":"Columbia","state":"SC","lat":33.93884,"long":-81.11953944},{"origin":"CAK","cancels":"4","total":"18","city":"Akron","state":"OH","lat":40.91631194,"long":-81.44246556},{"origin":"CHS","cancels":"10","total":"36","city":"Charleston","state":"SC","lat":32.89864639,"long":-80.04050583},{"origin":"CLE","cancels":"69","total":"128","city":"Cleveland","state":"OH","lat":41.41089417,"long":-81.84939667},{"origin":"CLT","cancels":"37","total":"345","city":"Charlotte","state":"NC","lat":35.21401111,"long":-80.94312583},{"origin":"CMH","cancels":"20","total":"71","city":"Columbus","state":"OH","lat":39.99798528,"long":-82.89188278},{"origin":"COS","cancels":"5","total":"28","city":"Colorado Springs","state":"CO","lat":38.80580556,"long":-104.70025},{"origin":"CRP","cancels":"1","total":"19","city":"Corpus Christi","state":"TX","lat":27.77036083,"long":-97.50121528},{"origin":"CVG","cancels":"13","total":"51","city":"Covington","state":"KY","lat":39.04614278,"long":-84.6621725},{"origin":"DAL","cancels":"2","total":"135","city":"Dallas","state":"TX","lat":32.84711389,"long":-96.85177222},{"origin":"DAY","cancels":"10","total":"24","city":"Dayton","state":"OH","lat":39.90237583,"long":-84.219375},{"origin":"DCA","cancels":"36","total":"190","city":"Arlington","state":"VA","lat":38.85208333,"long":-77.03772222},{"origin":"DEN","cancels":"93","total":"677","city":"Denver","state":"CO","lat":39.85840806,"long":-104.6670019},{"origin":"DFW","cancels":"60","total":"795","city":"Dallas-Fort Worth","state":"TX","lat":32.89595056,"long":-97.0372},{"origin":"DSM","cancels":"13","total":"29","city":"Des Moines","state":"IA","lat":41.53493306,"long":-93.66068222},{"origin":"DTW","cancels":"86","total":"259","city":"Detroit","state":"MI","lat":42.21205889,"long":-83.34883583},{"origin":"ELP","cancels":"9","total":"53","city":"El Paso","state":"TX","lat":31.80666667,"long":-106.3778056},{"origin":"EUG","cancels":"2","total":"17","city":"Eugene","state":"OR","lat":44.12326,"long":-123.2186856},{"origin":"EWR","cancels":"68","total":"343","city":"Newark","state":"NJ","lat":40.69249722,"long":-74.16866056},{"origin":"FAR","cancels":"10","total":"16","city":"Fargo","state":"ND","lat":46.91934889,"long":-96.81498889},{"origin":"FAT","cancels":"0","total":"31","city":"Fresno","state":"CA","lat":36.77619444,"long":-119.7181389},{"origin":"FLL","cancels":"44","total":"199","city":"Ft. Lauderdale","state":"FL","lat":26.07258333,"long":-80.15275},{"origin":"FSD","cancels":"13","total":"21","city":"Sioux Falls","state":"SD","lat":43.58135111,"long":-96.74170028},{"origin":"GEG","cancels":"0","total":"26","city":"Spokane","state":"WA","lat":47.61985556,"long":-117.5338425},{"origin":"GRR","cancels":"10","total":"25","city":"Grand Rapids","state":"MI","lat":42.88081972,"long":-85.52276778},{"origin":"GSO","cancels":"7","total":"21","city":"Greensboro","state":"NC","lat":36.09774694,"long":-79.9372975},{"origin":"GSP","cancels":"7","total":"24","city":"Greer","state":"SC","lat":34.89566722,"long":-82.21885833},{"origin":"HNL","cancels":"2","total":"131","city":"Honolulu","state":"HI","lat":21.31869111,"long":-157.9224072},{"origin":"HOU","cancels":"16","total":"178","city":"Houston","state":"TX","lat":29.64541861,"long":-95.27888889},{"origin":"HPN","cancels":"14","total":"20","city":"White Plains","state":"NY","lat":41.06695778,"long":-73.70757444},{"origin":"HSV","cancels":"5","total":"18","city":"Huntsville","state":"AL","lat":34.6404475,"long":-86.77310944},{"origin":"IAD","cancels":"35","total":"170","city":"Chantilly","state":"VA","lat":38.94453194,"long":-77.45580972},{"origin":"IAH","cancels":"85","total":"525","city":"Houston","state":"TX","lat":29.98047222,"long":-95.33972222},{"origin":"ICT","cancels":"10","total":"30","city":"Wichita","state":"KS","lat":37.64995889,"long":-97.43304583},{"origin":"IND","cancels":"68","total":"77","city":"Indianapolis","state":"IN","lat":39.71732917,"long":-86.29438417},{"origin":"ITO","cancels":"1","total":"17","city":"Hilo","state":"HI","lat":19.72026306,"long":-155.0484703},{"origin":"JAN","cancels":"4","total":"25","city":"Jackson","state":"MS","lat":32.31116667,"long":-90.07588889},{"origin":"JAX","cancels":"11","total":"66","city":"Jacksonville","state":"FL","lat":30.49405556,"long":-81.68786111},{"origin":"JFK","cancels":"85","total":"268","city":"New York","state":"NY","lat":40.63975111,"long":-73.77892556},{"origin":"KOA","cancels":"1","total":"30","city":"Kailua/Kona","state":"HI","lat":19.73876583,"long":-156.0456314},{"origin":"LAS","cancels":"23","total":"374","city":"Las Vegas","state":"NV","lat":36.08036111,"long":-115.1523333},{"origin":"LAX","cancels":"36","total":"660","city":"Los Angeles","state":"CA","lat":33.94253611,"long":-118.4080744},{"origin":"LBB","cancels":"3","total":"20","city":"Lubbock","state":"TX","lat":33.66363889,"long":-101.8227778},{"origin":"LFT","cancels":"2","total":"16","city":"Lafayette","state":"LA","lat":30.20527972,"long":-91.987655},{"origin":"LGA","cancels":"89","total":"289","city":"New York","state":"NY","lat":40.77724306,"long":-73.87260917},{"origin":"LGB","cancels":"3","total":"33","city":"Long Beach","state":"CA","lat":33.81772222,"long":-118.1516111},{"origin":"LIH","cancels":"1","total":"28","city":"Lihue","state":"HI","lat":21.97598306,"long":-159.3389581},{"origin":"LIT","cancels":"14","total":"39","city":"Little Rock","state":"AR","lat":34.72939611,"long":-92.22424556},{"origin":"MAF","cancels":"1","total":"27","city":"Midland","state":"TX","lat":31.94252778,"long":-102.2019139},{"origin":"MCI","cancels":"21","total":"132","city":"Kansas City","state":"MO","lat":39.29760528,"long":-94.71390556},{"origin":"MCO","cancels":"43","total":"316","city":"Orlando","state":"FL","lat":28.42888889,"long":-81.31602778},{"origin":"MDW","cancels":"118","total":"237","city":"Chicago","state":"IL","lat":41.7859825,"long":-87.75242444},{"origin":"MEM","cancels":"8","total":"52","city":"Memphis","state":"TN","lat":35.04241667,"long":-89.97666667},{"origin":"MHT","cancels":"9","total":"23","city":"Manchester","state":"NH","lat":42.93451639,"long":-71.43705583},{"origin":"MIA","cancels":"17","total":"249","city":"Miami","state":"FL","lat":25.79325,"long":-80.29055556},{"origin":"MKE","cancels":"30","total":"93","city":"Milwaukee","state":"WI","lat":42.94722222,"long":-87.89658333},{"origin":"MOB","cancels":"4","total":"17","city":"Mobile","state":"AL","lat":30.69141667,"long":-88.24283333},{"origin":"MSN","cancels":"14","total":"32","city":"Madison","state":"WI","lat":43.13985778,"long":-89.33751361},{"origin":"MSP","cancels":"46","total":"276","city":"Minneapolis","state":"MN","lat":44.88054694,"long":-93.2169225},{"origin":"MSY","cancels":"9","total":"113","city":"New Orleans","state":"LA","lat":29.99338889,"long":-90.25802778},{"origin":"OAK","cancels":"5","total":"121","city":"Oakland","state":"CA","lat":37.72129083,"long":-122.2207167},{"origin":"OGG","cancels":"0","total":"61","city":"Kahului","state":"HI","lat":20.89864972,"long":-156.4304578},{"origin":"OKC","cancels":"13","total":"62","city":"Oklahoma City","state":"OK","lat":35.39308833,"long":-97.60073389},{"origin":"OMA","cancels":"20","total":"57","city":"Omaha","state":"NE","lat":41.30251861,"long":-95.89417306},{"origin":"ONT","cancels":"0","total":"58","city":"Ontario","state":"CA","lat":34.056,"long":-117.6011944},{"origin":"ORD","cancels":"573","total":"738","city":"Chicago","state":"IL","lat":41.979595,"long":-87.90446417},{"origin":"ORF","cancels":"9","total":"37","city":"Norfolk","state":"VA","lat":36.89461111,"long":-76.20122222},{"origin":"PBI","cancels":"21","total":"77","city":"West Palm Beach","state":"FL","lat":26.68316194,"long":-80.09559417},{"origin":"PDX","cancels":"11","total":"159","city":"Portland","state":"OR","lat":45.58872222,"long":-122.5975},{"origin":"PHL","cancels":"19","total":"206","city":"Philadelphia","state":"PA","lat":39.87195278,"long":-75.24114083},{"origin":"PHX","cancels":"21","total":"479","city":"Phoenix","state":"AZ","lat":33.43416667,"long":-112.0080556},{"origin":"PIT","cancels":"19","total":"81","city":"Pittsburgh","state":"PA","lat":40.49146583,"long":-80.23287083},{"origin":"PNS","cancels":"2","total":"23","city":"Pensacola","state":"FL","lat":30.47330556,"long":-87.18744444},{"origin":"PSP","cancels":"1","total":"39","city":"Palm Springs","state":"CA","lat":33.82921556,"long":-116.5062531},{"origin":"PVD","cancels":"11","total":"34","city":"Providence","state":"RI","lat":41.72399917,"long":-71.42822111},{"origin":"RDU","cancels":"21","total":"118","city":"Raleigh","state":"NC","lat":35.87763889,"long":-78.78747222},{"origin":"RIC","cancels":"18","total":"48","city":"Richmond","state":"VA","lat":37.50516667,"long":-77.31966667},{"origin":"RNO","cancels":"1","total":"46","city":"Reno","state":"NV","lat":39.49857611,"long":-119.7680647},{"origin":"ROC","cancels":"11","total":"23","city":"Rochester","state":"NY","lat":43.11886611,"long":-77.67238389},{"origin":"RSW","cancels":"26","total":"88","city":"Ft. Myers","state":"FL","lat":26.53616667,"long":-81.75516667},{"origin":"SAN","cancels":"16","total":"220","city":"San Diego","state":"CA","lat":32.73355611,"long":-117.1896567},{"origin":"SAT","cancels":"9","total":"102","city":"San Antonio","state":"TX","lat":29.53369444,"long":-98.46977778},{"origin":"SAV","cancels":"10","total":"23","city":"Savannah","state":"GA","lat":32.12758333,"long":-81.20213889},{"origin":"SBA","cancels":"0","total":"27","city":"Santa Barbara","state":"CA","lat":34.42621194,"long":-119.8403733},{"origin":"SDF","cancels":"11","total":"39","city":"Louisville","state":"KY","lat":38.17438889,"long":-85.736},{"origin":"SEA","cancels":"14","total":"280","city":"Seattle","state":"WA","lat":47.44898194,"long":-122.3093131},{"origin":"SFO","cancels":"28","total":"483","city":"San Francisco","state":"CA","lat":37.61900194,"long":-122.3748433},{"origin":"SGF","cancels":"6","total":"17","city":"Springfield","state":"MO","lat":37.24432611,"long":-93.38685806},{"origin":"SHV","cancels":"1","total":"20","city":"Shreveport","state":"LA","lat":32.4466275,"long":-93.82559833},{"origin":"SJC","cancels":"8","total":"117","city":"San Jose","state":"CA","lat":37.36186194,"long":-121.9290089},{"origin":"SJU","cancels":"18","total":"88","city":"San Juan","state":"PR","lat":18.43941667,"long":-66.00183333},{"origin":"SLC","cancels":"12","total":"298","city":"Salt Lake City","state":"UT","lat":40.78838778,"long":-111.9777731},{"origin":"SMF","cancels":"5","total":"118","city":"Sacramento","state":"CA","lat":38.69542167,"long":-121.5907669},{"origin":"SNA","cancels":"7","total":"112","city":"Santa Ana","state":"CA","lat":33.67565861,"long":-117.8682225},{"origin":"STL","cancels":"38","total":"149","city":"St Louis","state":"MO","lat":38.74768694,"long":-90.35998972},{"origin":"SYR","cancels":"16","total":"23","city":"Syracuse","state":"NY","lat":43.11118694,"long":-76.10631056},{"origin":"TPA","cancels":"26","total":"189","city":"Tampa","state":"FL","lat":27.97547222,"long":-82.53325},{"origin":"TUL","cancels":"13","total":"55","city":"Tulsa","state":"OK","lat":36.19837222,"long":-95.88824167},{"origin":"TUS","cancels":"5","total":"49","city":"Tucson","state":"AZ","lat":32.11608333,"long":-110.9410278},{"origin":"TYS","cancels":"8","total":"25","city":"Knoxville","state":"TN","lat":35.81248722,"long":-83.99285583},{"origin":"VPS","cancels":"1","total":"15","city":"Valparaiso","state":"FL","lat":30.48325,"long":-86.5254},{"origin":"XNA","cancels":"11","total":"29","city":"Fayetteville/Springdale/Rogers","state":"AR","lat":36.28186944,"long":-94.30681111}],"7":[{"origin":"ABQ","cancels":"5","total":"62","city":"Albuquerque","state":"NM","lat":35.04022222,"long":-106.6091944},{"origin":"ALB","cancels":"5","total":"19","city":"Albany","state":"NY","lat":42.74811944,"long":-73.80297861},{"origin":"AMA","cancels":"4","total":"21","city":"Amarillo","state":"TX","lat":35.2193725,"long":-101.7059272},{"origin":"ANC","cancels":"0","total":"42","city":"Anchorage","state":"AK","lat":61.17432028,"long":-149.9961856},{"origin":"ASE","cancels":"6","total":"21","city":"Aspen","state":"CO","lat":39.22316,"long":-106.868845},{"origin":"ATL","cancels":"57","total":"1006","city":"Atlanta","state":"GA","lat":33.64044444,"long":-84.42694444},{"origin":"AUS","cancels":"10","total":"112","city":"Austin","state":"TX","lat":30.19453278,"long":-97.66987194},{"origin":"BDL","cancels":"9","total":"59","city":"Windsor Locks","state":"CT","lat":41.93887417,"long":-72.68322833},{"origin":"BHM","cancels":"5","total":"37","city":"Birmingham","state":"AL","lat":33.56294306,"long":-86.75354972},{"origin":"BNA","cancels":"23","total":"158","city":"Nashville","state":"TN","lat":36.12447667,"long":-86.67818222},{"origin":"BOI","cancels":"0","total":"26","city":"Boise","state":"ID","lat":43.56444444,"long":-116.2227778},{"origin":"BOS","cancels":"70","total":"275","city":"Boston","state":"MA","lat":42.3643475,"long":-71.00517917},{"origin":"BTR","cancels":"4","total":"23","city":"Baton Rouge","state":"LA","lat":30.53316083,"long":-91.14963444},{"origin":"BUF","cancels":"37","total":"39","city":"Buffalo","state":"NY","lat":42.94052472,"long":-78.73216667},{"origin":"BUR","cancels":"7","total":"62","city":"Burbank","state":"CA","lat":34.20061917,"long":-118.3584969},{"origin":"BWI","cancels":"24","total":"240","city":"Baltimore","state":"MD","lat":39.17540167,"long":-76.66819833},{"origin":"CAE","cancels":"7","total":"20","city":"Columbia","state":"SC","lat":33.93884,"long":-81.11953944},{"origin":"CAK","cancels":"4","total":"18","city":"Akron","state":"OH","lat":40.91631194,"long":-81.44246556},{"origin":"CHS","cancels":"3","total":"31","city":"Charleston","state":"SC","lat":32.89864639,"long":-80.04050583},{"origin":"CID","cancels":"8","total":"16","city":"Cedar Rapids","state":"IA","lat":41.88458833,"long":-91.71087222},{"origin":"CLE","cancels":"60","total":"112","city":"Cleveland","state":"OH","lat":41.41089417,"long":-81.84939667},{"origin":"CLT","cancels":"27","total":"299","city":"Charlotte","state":"NC","lat":35.21401111,"long":-80.94312583},{"origin":"CMH","cancels":"21","total":"71","city":"Columbus","state":"OH","lat":39.99798528,"long":-82.89188278},{"origin":"COS","cancels":"3","total":"23","city":"Colorado Springs","state":"CO","lat":38.80580556,"long":-104.70025},{"origin":"CRP","cancels":"3","total":"19","city":"Corpus Christi","state":"TX","lat":27.77036083,"long":-97.50121528},{"origin":"CVG","cancels":"10","total":"48","city":"Covington","state":"KY","lat":39.04614278,"long":-84.6621725},{"origin":"DAL","cancels":"5","total":"134","city":"Dallas","state":"TX","lat":32.84711389,"long":-96.85177222},{"origin":"DAY","cancels":"8","total":"27","city":"Dayton","state":"OH","lat":39.90237583,"long":-84.219375},{"origin":"DCA","cancels":"24","total":"200","city":"Arlington","state":"VA","lat":38.85208333,"long":-77.03772222},{"origin":"DEN","cancels":"27","total":"537","city":"Denver","state":"CO","lat":39.85840806,"long":-104.6670019},{"origin":"DFW","cancels":"24","total":"766","city":"Dallas-Fort Worth","state":"TX","lat":32.89595056,"long":-97.0372},{"origin":"DSM","cancels":"13","total":"30","city":"Des Moines","state":"IA","lat":41.53493306,"long":-93.66068222},{"origin":"DTW","cancels":"101","total":"250","city":"Detroit","state":"MI","lat":42.21205889,"long":-83.34883583},{"origin":"ELP","cancels":"3","total":"48","city":"El Paso","state":"TX","lat":31.80666667,"long":-106.3778056},{"origin":"EWR","cancels":"68","total":"311","city":"Newark","state":"NJ","lat":40.69249722,"long":-74.16866056},{"origin":"FAT","cancels":"0","total":"29","city":"Fresno","state":"CA","lat":36.77619444,"long":-119.7181389},{"origin":"FLL","cancels":"13","total":"181","city":"Ft. Lauderdale","state":"FL","lat":26.07258333,"long":-80.15275},{"origin":"FSD","cancels":"8","total":"20","city":"Sioux Falls","state":"SD","lat":43.58135111,"long":-96.74170028},{"origin":"GEG","cancels":"0","total":"24","city":"Spokane","state":"WA","lat":47.61985556,"long":-117.5338425},{"origin":"GRR","cancels":"11","total":"31","city":"Grand Rapids","state":"MI","lat":42.88081972,"long":-85.52276778},{"origin":"GSO","cancels":"4","total":"22","city":"Greensboro","state":"NC","lat":36.09774694,"long":-79.9372975},{"origin":"GSP","cancels":"8","total":"20","city":"Greer","state":"SC","lat":34.89566722,"long":-82.21885833},{"origin":"HNL","cancels":"1","total":"117","city":"Honolulu","state":"HI","lat":21.31869111,"long":-157.9224072},{"origin":"HOU","cancels":"6","total":"174","city":"Houston","state":"TX","lat":29.64541861,"long":-95.27888889},{"origin":"HPN","cancels":"5","total":"21","city":"White Plains","state":"NY","lat":41.06695778,"long":-73.70757444},{"origin":"HSV","cancels":"4","total":"18","city":"Huntsville","state":"AL","lat":34.6404475,"long":-86.77310944},{"origin":"IAD","cancels":"21","total":"153","city":"Chantilly","state":"VA","lat":38.94453194,"long":-77.45580972},{"origin":"IAH","cancels":"33","total":"435","city":"Houston","state":"TX","lat":29.98047222,"long":-95.33972222},{"origin":"ICT","cancels":"7","total":"28","city":"Wichita","state":"KS","lat":37.64995889,"long":-97.43304583},{"origin":"IND","cancels":"44","total":"70","city":"Indianapolis","state":"IN","lat":39.71732917,"long":-86.29438417},{"origin":"ITO","cancels":"0","total":"17","city":"Hilo","state":"HI","lat":19.72026306,"long":-155.0484703},{"origin":"JAN","cancels":"4","total":"25","city":"Jackson","state":"MS","lat":32.31116667,"long":-90.07588889},{"origin":"JAX","cancels":"10","total":"59","city":"Jacksonville","state":"FL","lat":30.49405556,"long":-81.68786111},{"origin":"JFK","cancels":"56","total":"242","city":"New York","state":"NY","lat":40.63975111,"long":-73.77892556},{"origin":"KOA","cancels":"0","total":"27","city":"Kailua/Kona","state":"HI","lat":19.73876583,"long":-156.0456314},{"origin":"LAS","cancels":"7","total":"348","city":"Las Vegas","state":"NV","lat":36.08036111,"long":-115.1523333},{"origin":"LAX","cancels":"21","total":"590","city":"Los Angeles","state":"CA","lat":33.94253611,"long":-118.4080744},{"origin":"LBB","cancels":"0","total":"18","city":"Lubbock","state":"TX","lat":33.66363889,"long":-101.8227778},{"origin":"LEX","cancels":"6","total":"15","city":"Lexington","state":"KY","lat":38.03697222,"long":-84.60538889},{"origin":"LFT","cancels":"2","total":"16","city":"Lafayette","state":"LA","lat":30.20527972,"long":-91.987655},{"origin":"LGA","cancels":"52","total":"299","city":"New York","state":"NY","lat":40.77724306,"long":-73.87260917},{"origin":"LGB","cancels":"0","total":"31","city":"Long Beach","state":"CA","lat":33.81772222,"long":-118.1516111},{"origin":"LIH","cancels":"0","total":"27","city":"Lihue","state":"HI","lat":21.97598306,"long":-159.3389581},{"origin":"LIT","cancels":"7","total":"37","city":"Little Rock","state":"AR","lat":34.72939611,"long":-92.22424556},{"origin":"MAF","cancels":"2","total":"28","city":"Midland","state":"TX","lat":31.94252778,"long":-102.2019139},{"origin":"MCI","cancels":"18","total":"116","city":"Kansas City","state":"MO","lat":39.29760528,"long":-94.71390556},{"origin":"MCO","cancels":"21","total":"282","city":"Orlando","state":"FL","lat":28.42888889,"long":-81.31602778},{"origin":"MDW","cancels":"96","total":"223","city":"Chicago","state":"IL","lat":41.7859825,"long":-87.75242444},{"origin":"MEM","cancels":"6","total":"44","city":"Memphis","state":"TN","lat":35.04241667,"long":-89.97666667},{"origin":"MHT","cancels":"7","total":"19","city":"Manchester","state":"NH","lat":42.93451639,"long":-71.43705583},{"origin":"MIA","cancels":"9","total":"233","city":"Miami","state":"FL","lat":25.79325,"long":-80.29055556},{"origin":"MKE","cancels":"21","total":"90","city":"Milwaukee","state":"WI","lat":42.94722222,"long":-87.89658333},{"origin":"MOB","cancels":"2","total":"16","city":"Mobile","state":"AL","lat":30.69141667,"long":-88.24283333},{"origin":"MSN","cancels":"9","total":"26","city":"Madison","state":"WI","lat":43.13985778,"long":-89.33751361},{"origin":"MSP","cancels":"28","total":"261","city":"Minneapolis","state":"MN","lat":44.88054694,"long":-93.2169225},{"origin":"MSY","cancels":"6","total":"110","city":"New Orleans","state":"LA","lat":29.99338889,"long":-90.25802778},{"origin":"OAK","cancels":"13","total":"116","city":"Oakland","state":"CA","lat":37.72129083,"long":-122.2207167},{"origin":"OGG","cancels":"0","total":"53","city":"Kahului","state":"HI","lat":20.89864972,"long":-156.4304578},{"origin":"OKC","cancels":"14","total":"56","city":"Oklahoma City","state":"OK","lat":35.39308833,"long":-97.60073389},{"origin":"OMA","cancels":"15","total":"56","city":"Omaha","state":"NE","lat":41.30251861,"long":-95.89417306},{"origin":"ONT","cancels":"6","total":"57","city":"Ontario","state":"CA","lat":34.056,"long":-117.6011944},{"origin":"ORD","cancels":"386","total":"733","city":"Chicago","state":"IL","lat":41.979595,"long":-87.90446417},{"origin":"ORF","cancels":"8","total":"33","city":"Norfolk","state":"VA","lat":36.89461111,"long":-76.20122222},{"origin":"PBI","cancels":"8","total":"70","city":"West Palm Beach","state":"FL","lat":26.68316194,"long":-80.09559417},{"origin":"PDX","cancels":"2","total":"132","city":"Portland","state":"OR","lat":45.58872222,"long":-122.5975},{"origin":"PHL","cancels":"15","total":"200","city":"Philadelphia","state":"PA","lat":39.87195278,"long":-75.24114083},{"origin":"PHX","cancels":"17","total":"405","city":"Phoenix","state":"AZ","lat":33.43416667,"long":-112.0080556},{"origin":"PIT","cancels":"17","total":"75","city":"Pittsburgh","state":"PA","lat":40.49146583,"long":-80.23287083},{"origin":"PNS","cancels":"0","total":"22","city":"Pensacola","state":"FL","lat":30.47330556,"long":-87.18744444},{"origin":"PSP","cancels":"2","total":"34","city":"Palm Springs","state":"CA","lat":33.82921556,"long":-116.5062531},{"origin":"PVD","cancels":"6","total":"31","city":"Providence","state":"RI","lat":41.72399917,"long":-71.42822111},{"origin":"RDU","cancels":"13","total":"103","city":"Raleigh","state":"NC","lat":35.87763889,"long":-78.78747222},{"origin":"RIC","cancels":"18","total":"45","city":"Richmond","state":"VA","lat":37.50516667,"long":-77.31966667},{"origin":"RNO","cancels":"1","total":"39","city":"Reno","state":"NV","lat":39.49857611,"long":-119.7680647},{"origin":"ROC","cancels":"13","total":"26","city":"Rochester","state":"NY","lat":43.11886611,"long":-77.67238389},{"origin":"RSW","cancels":"10","total":"87","city":"Ft. Myers","state":"FL","lat":26.53616667,"long":-81.75516667},{"origin":"SAN","cancels":"12","total":"193","city":"San Diego","state":"CA","lat":32.73355611,"long":-117.1896567},{"origin":"SAT","cancels":"5","total":"91","city":"San Antonio","state":"TX","lat":29.53369444,"long":-98.46977778},{"origin":"SAV","cancels":"3","total":"16","city":"Savannah","state":"GA","lat":32.12758333,"long":-81.20213889},{"origin":"SBA","cancels":"1","total":"24","city":"Santa Barbara","state":"CA","lat":34.42621194,"long":-119.8403733},{"origin":"SDF","cancels":"6","total":"38","city":"Louisville","state":"KY","lat":38.17438889,"long":-85.736},{"origin":"SEA","cancels":"3","total":"243","city":"Seattle","state":"WA","lat":47.44898194,"long":-122.3093131},{"origin":"SFO","cancels":"19","total":"420","city":"San Francisco","state":"CA","lat":37.61900194,"long":-122.3748433},{"origin":"SGF","cancels":"8","total":"19","city":"Springfield","state":"MO","lat":37.24432611,"long":-93.38685806},{"origin":"SHV","cancels":"4","total":"20","city":"Shreveport","state":"LA","lat":32.4466275,"long":-93.82559833},{"origin":"SJC","cancels":"6","total":"108","city":"San Jose","state":"CA","lat":37.36186194,"long":-121.9290089},{"origin":"SJU","cancels":"3","total":"71","city":"San Juan","state":"PR","lat":18.43941667,"long":-66.00183333},{"origin":"SLC","cancels":"4","total":"267","city":"Salt Lake City","state":"UT","lat":40.78838778,"long":-111.9777731},{"origin":"SMF","cancels":"9","total":"111","city":"Sacramento","state":"CA","lat":38.69542167,"long":-121.5907669},{"origin":"SNA","cancels":"1","total":"105","city":"Santa Ana","state":"CA","lat":33.67565861,"long":-117.8682225},{"origin":"STL","cancels":"20","total":"137","city":"St Louis","state":"MO","lat":38.74768694,"long":-90.35998972},{"origin":"SYR","cancels":"9","total":"18","city":"Syracuse","state":"NY","lat":43.11118694,"long":-76.10631056},{"origin":"TLH","cancels":"2","total":"15","city":"Tallahassee","state":"FL","lat":30.39652778,"long":-84.35033333},{"origin":"TPA","cancels":"12","total":"172","city":"Tampa","state":"FL","lat":27.97547222,"long":-82.53325},{"origin":"TUL","cancels":"11","total":"51","city":"Tulsa","state":"OK","lat":36.19837222,"long":-95.88824167},{"origin":"TUS","cancels":"2","total":"44","city":"Tucson","state":"AZ","lat":32.11608333,"long":-110.9410278},{"origin":"TYS","cancels":"4","total":"23","city":"Knoxville","state":"TN","lat":35.81248722,"long":-83.99285583},{"origin":"XNA","cancels":"11","total":"30","city":"Fayetteville/Springdale/Rogers","state":"AR","lat":36.28186944,"long":-94.30681111}],"8":[{"origin":"ABQ","cancels":"1","total":"63","city":"Albuquerque","state":"NM","lat":35.04022222,"long":-106.6091944},{"origin":"ALB","cancels":"2","total":"19","city":"Albany","state":"NY","lat":42.74811944,"long":-73.80297861},{"origin":"AMA","cancels":"0","total":"21","city":"Amarillo","state":"TX","lat":35.2193725,"long":-101.7059272},{"origin":"ANC","cancels":"2","total":"40","city":"Anchorage","state":"AK","lat":61.17432028,"long":-149.9961856},{"origin":"ASE","cancels":"2","total":"21","city":"Aspen","state":"CO","lat":39.22316,"long":-106.868845},{"origin":"ATL","cancels":"26","total":"1028","city":"Atlanta","state":"GA","lat":33.64044444,"long":-84.42694444},{"origin":"AUS","cancels":"1","total":"106","city":"Austin","state":"TX","lat":30.19453278,"long":-97.66987194},{"origin":"BDL","cancels":"5","total":"61","city":"Windsor Locks","state":"CT","lat":41.93887417,"long":-72.68322833},{"origin":"BHM","cancels":"2","total":"37","city":"Birmingham","state":"AL","lat":33.56294306,"long":-86.75354972},{"origin":"BNA","cancels":"7","total":"159","city":"Nashville","state":"TN","lat":36.12447667,"long":-86.67818222},{"origin":"BOI","cancels":"1","total":"27","city":"Boise","state":"ID","lat":43.56444444,"long":-116.2227778},{"origin":"BOS","cancels":"6","total":"278","city":"Boston","state":"MA","lat":42.3643475,"long":-71.00517917},{"origin":"BTR","cancels":"0","total":"23","city":"Baton Rouge","state":"LA","lat":30.53316083,"long":-91.14963444},{"origin":"BUF","cancels":"22","total":"40","city":"Buffalo","state":"NY","lat":42.94052472,"long":-78.73216667},{"origin":"BUR","cancels":"3","total":"59","city":"Burbank","state":"CA","lat":34.20061917,"long":-118.3584969},{"origin":"BWI","cancels":"4","total":"241","city":"Baltimore","state":"MD","lat":39.17540167,"long":-76.66819833},{"origin":"CAE","cancels":"5","total":"20","city":"Columbia","state":"SC","lat":33.93884,"long":-81.11953944},{"origin":"CAK","cancels":"2","total":"18","city":"Akron","state":"OH","lat":40.91631194,"long":-81.44246556},{"origin":"CHS","cancels":"0","total":"30","city":"Charleston","state":"SC","lat":32.89864639,"long":-80.04050583},{"origin":"CID","cancels":"4","total":"17","city":"Cedar Rapids","state":"IA","lat":41.88458833,"long":-91.71087222},{"origin":"CLE","cancels":"27","total":"108","city":"Cleveland","state":"OH","lat":41.41089417,"long":-81.84939667},{"origin":"CLT","cancels":"6","total":"337","city":"Charlotte","state":"NC","lat":35.21401111,"long":-80.94312583},{"origin":"CMH","cancels":"4","total":"75","city":"Columbus","state":"OH","lat":39.99798528,"long":-82.89188278},{"origin":"COS","cancels":"1","total":"23","city":"Colorado Springs","state":"CO","lat":38.80580556,"long":-104.70025},{"origin":"CRP","cancels":"0","total":"17","city":"Corpus Christi","state":"TX","lat":27.77036083,"long":-97.50121528},{"origin":"CVG","cancels":"7","total":"49","city":"Covington","state":"KY","lat":39.04614278,"long":-84.6621725},{"origin":"DAL","cancels":"1","total":"135","city":"Dallas","state":"TX","lat":32.84711389,"long":-96.85177222},{"origin":"DAY","cancels":"1","total":"26","city":"Dayton","state":"OH","lat":39.90237583,"long":-84.219375},{"origin":"DCA","cancels":"6","total":"204","city":"Arlington","state":"VA","lat":38.85208333,"long":-77.03772222},{"origin":"DEN","cancels":"5","total":"552","city":"Denver","state":"CO","lat":39.85840806,"long":-104.6670019},{"origin":"DFW","cancels":"15","total":"760","city":"Dallas-Fort Worth","state":"TX","lat":32.89595056,"long":-97.0372},{"origin":"DSM","cancels":"4","total":"31","city":"Des Moines","state":"IA","lat":41.53493306,"long":-93.66068222},{"origin":"DTW","cancels":"35","total":"262","city":"Detroit","state":"MI","lat":42.21205889,"long":-83.34883583},{"origin":"ELP","cancels":"0","total":"47","city":"El Paso","state":"TX","lat":31.80666667,"long":-106.3778056},{"origin":"EWR","cancels":"25","total":"305","city":"Newark","state":"NJ","lat":40.69249722,"long":-74.16866056},{"origin":"FAR","cancels":"2","total":"15","city":"Fargo","state":"ND","lat":46.91934889,"long":-96.81498889},{"origin":"FAT","cancels":"0","total":"28","city":"Fresno","state":"CA","lat":36.77619444,"long":-119.7181389},{"origin":"FLL","cancels":"2","total":"183","city":"Ft. Lauderdale","state":"FL","lat":26.07258333,"long":-80.15275},{"origin":"FSD","cancels":"3","total":"19","city":"Sioux Falls","state":"SD","lat":43.58135111,"long":-96.74170028},{"origin":"GEG","cancels":"1","total":"24","city":"Spokane","state":"WA","lat":47.61985556,"long":-117.5338425},{"origin":"GRR","cancels":"2","total":"27","city":"Grand Rapids","state":"MI","lat":42.88081972,"long":-85.52276778},{"origin":"GSO","cancels":"3","total":"21","city":"Greensboro","state":"NC","lat":36.09774694,"long":-79.9372975},{"origin":"GSP","cancels":"4","total":"22","city":"Greer","state":"SC","lat":34.89566722,"long":-82.21885833},{"origin":"HNL","cancels":"0","total":"118","city":"Honolulu","state":"HI","lat":21.31869111,"long":-157.9224072},{"origin":"HOU","cancels":"2","total":"174","city":"Houston","state":"TX","lat":29.64541861,"long":-95.27888889},{"origin":"HPN","cancels":"2","total":"21","city":"White Plains","state":"NY","lat":41.06695778,"long":-73.70757444},{"origin":"HSV","cancels":"2","total":"17","city":"Huntsville","state":"AL","lat":34.6404475,"long":-86.77310944},{"origin":"IAD","cancels":"22","total":"153","city":"Chantilly","state":"VA","lat":38.94453194,"long":-77.45580972},{"origin":"IAH","cancels":"18","total":"439","city":"Houston","state":"TX","lat":29.98047222,"long":-95.33972222},{"origin":"ICT","cancels":"3","total":"24","city":"Wichita","state":"KS","lat":37.64995889,"long":-97.43304583},